=================================================================================



时间	日期	纬度	经度	速度
?:?:?	?-?-?	?纬?°?'?"	?经?°?'?"	?km/h

可见卫星数目	卫星号
0	

定位模式	定位类型	有效卫星	卫星号	精度因子
自动	未定位	0		p= h= v=
=================================================================================
$GPRMC,111646.00,A,2227.56061,N,11302.56693,E,0.044,,150414,,,A*7F
$GPGSV,4,1,14,01,33,174,34,03,46,024,31,07,45,326,34,08,16,323,29*78
$GPGSV,4,2,14,09,08,322,28,11,60,172,29,13,40,239,31,16,23,066,09*78
$GPGSV,4,3,14,19,63,012,33,20,01,182,11,23,26,200,21,27,30,034,27*7D
$GPGSV,4,4,14,28,04,288,19,30,19,321,34*74
$GPGSA,A,3,16,27,11,09,23,07,03,19,13,08,01,,2.07,1.13,1.73*0C

时间	日期	纬度	经度	速度
19:16:46	2014-4-15	N纬22°27'33.63660"	E经113°2'34.01580"	0.08149km/h

可见卫星数目	卫星号
14	1 3 7 8 9 11 13 16 19 20 23 27 28 30 

定位模式	定位类型	有效卫星	卫星号	精度因子
自动	3D定位	11	1 3 7 8 9 11 13 16 19 23 27 	p=2.07 h=1.13 v=1.73
=================================================================================
$GPRMC,111647.00,A,2227.56059,N,11302.56691,E,0.091,,150414,,,A*7F
$GPGSV,4,1,14,01,33,174,34,03,46,024,31,07,45,326,34,08,16,323,29*78
$GPGSV,4,2,14,09,08,322,28,11,60,172,29,13,40,239,31,16,23,066,09*78
$GPGSV,4,3,14,19,63,012,33,20,01,182,,23,26,200,21,27,30,034,27*7D
$GPGSV,4,4,14,28,04,288,19,30,19,321,34*74
$GPGSA,A,3,16,27,11,09,07,03,19,13,08,01,,,2.07,1.13,1.73*0D

时间	日期	纬度	经度	速度
19:16:47	2014-4-15	N纬22°27'33.63540"	E经113°2'34.01460"	0.16853km/h

可见卫星数目	卫星号
14	1 3 7 8 9 11 13 16 19 20 23 27 28 30 

定位模式	定位类型	有效卫星	卫星号	精度因子
自动	3D定位	10	1 3 7 8 9 11 13 16 19 27 	p=2.07 h=1.13 v=1.73
=================================================================================
$GPRMC,111648.00,A,2227.56056,N,11302.56692,E,0.029,,150414,,,A*7F
$GPGSV,4,1,14,01,33,174,34,03,46,024,31,07,45,326,34,08,16,323,29*78
$GPGSV,4,2,14,09,08,322,28,11,60,172,29,13,40,239,31,16,23,066,*71
$GPGSV,4,3,14,19,63,012,33,20,01,182,,23,26,200,,27,30,034,27*7E
$GPGSV,4,4,14,28,04,288,19,30,19,321,33*73
$GPGSA,A,3,27,11,09,07,03,19,13,08,01,,,,2.07,1.13,1.73*0A

时间	日期	纬度	经度	速度
19:16:48	2014-4-15	N纬22°27'33.63360"	E经113°2'34.01520"	0.05371km/h

可见卫星数目	卫星号
14	1 3 7 8 9 11 13 16 19 20 23 27 28 30 

定位模式	定位类型	有效卫星	卫星号	精度因子
自动	3D定位	9	1 3 7 8 9 11 13 19 27 	p=2.07 h=1.13 v=1.73
=================================================================================
$GPRMC,111649.00,A,2227.56055,N,11302.56693,E,0.013,,150414,,,A*75
$GPGSV,4,1,14,01,33,174,33,03,46,024,31,07,45,326,34,08,16,323,29*7F
$GPGSV,4,2,14,09,08,322,28,11,60,172,29,13,40,239,31,16,23,066,*71
$GPGSV,4,3,14,19,63,012,33,20,01,182,,23,26,200,23,27,30,034,28*70
$GPGSV,4,4,14,28,04,288,20,30,19,321,33*79
$GPGSA,A,3,27,11,09,07,03,19,13,08,01,,,,2.07,1.13,1.73*0A

时间	日期	纬度	经度	速度
19:16:49	2014-4-15	N纬22°27'33.63300"	E经113°2'34.01580"	0.02408km/h

可见卫星数目	卫星号
14	1 3 7 8 9 11 13 16 19 20 23 27 28 30 

定位模式	定位类型	有效卫星	卫星号	精度因子
自动	3D定位	9	1 3 7 8 9 11 13 19 27 	p=2.07 h=1.13 v=1.73
=================================================================================
$GPRMC,111650.00,A,2227.56054,N,11302.56694,E,0.014,,150414,,,A*7C
$GPGSV,4,1,14,01,33,174,33,03,46,024,31,07,45,326,34,08,16,323,28*7E
$GPGSV,4,2,14,09,08,322,28,11,60,172,29,13,40,239,32,16,23,066,*72
$GPGSV,4,3,14,19,63,012,33,20,01,182,,23,26,200,21,27,30,034,28*72
$GPGSV,4,4,14,28,04,288,20,30,19,321,33*79
$GPGSA,A,3,27,11,09,07,03,19,13,08,01,,,,2.07,1.13,1.73*0A

时间	日期	纬度	经度	速度
19:16:50	2014-4-15	N纬22°27'33.63240"	E经113°2'34.01640"	0.02593km/h

可见卫星数目	卫星号
14	1 3 7 8 9 11 13 16 19 20 23 27 28 30 

定位模式	定位类型	有效卫星	卫星号	精度因子
自动	3D定位	9	1 3 7 8 9 11 13 19 27 	p=2.07 h=1.13 v=1.73
=================================================================================
$GPRMC,111651.00,A,2227.56053,N,11302.56694,E,0.027,,150414,,,A*7A
$GPGSV,4,1,14,01,33,174,31,03,46,024,31,07,45,326,34,08,16,323,28*7C
$GPGSV,4,2,14,09,08,322,27,11,60,172,29,13,40,239,32,16,23,066,*7D
$GPGSV,4,3,14,19,63,012,33,20,01,182,,23,26,200,,27,30,034,27*7E
$GPGSV,4,4,14,28,04,288,19,30,19,321,33*73
$GPGSA,A,3,27,11,09,07,03,19,13,08,01,,,,2.07,1.13,1.73*0A

时间	日期	纬度	经度	速度
19:16:51	2014-4-15	N纬22°27'33.63180"	E经113°2'34.01640"	0.05000km/h

可见卫星数目	卫星号
14	1 3 7 8 9 11 13 16 19 20 23 27 28 30 

定位模式	定位类型	有效卫星	卫星号	精度因子
自动	3D定位	9	1 3 7 8 9 11 13 19 27 	p=2.07 h=1.13 v=1.73
=================================================================================
$GPRMC,111652.00,A,2227.56053,N,11302.56695,E,0.136,,150414,,,A*79
$GPGSV,4,1,14,01,33,174,31,03,46,024,31,07,45,326,34,08,16,323,28*7C
$GPGSV,4,2,14,09,08,322,27,11,60,172,29,13,40,239,33,16,23,066,16*7B
$GPGSV,4,3,14,19,63,012,33,20,01,182,,23,26,200,,27,30,034,27*7E
$GPGSV,4,4,14,28,04,288,19,30,19,321,33*73
$GPGSA,A,3,16,27,11,09,07,03,19,13,08,01,,,2.07,1.13,1.73*0D

时间	日期	纬度	经度	速度
19:16:52	2014-4-15	N纬22°27'33.63180"	E经113°2'34.01700"	0.25187km/h

可见卫星数目	卫星号
14	1 3 7 8 9 11 13 16 19 20 23 27 28 30 

定位模式	定位类型	有效卫星	卫星号	精度因子
自动	3D定位	10	1 3 7 8 9 11 13 16 19 27 	p=2.07 h=1.13 v=1.73
=================================================================================
$GPRMC,111653.00,A,2227.56048,N,11302.56696,E,0.097,,150414,,,A*7B
$GPGSV,4,1,14,01,33,174,32,03,46,024,31,07,45,326,34,08,16,323,28*7F
$GPGSV,4,2,14,09,08,322,27,11,60,172,28,13,40,239,31,16,23,066,14*7A
$GPGSV,4,3,14,19,63,012,33,20,01,182,,23,26,200,16,27,30,034,27*79
$GPGSV,4,4,14,28,04,288,,30,19,321,33*7B
$GPGSA,A,3,16,27,11,09,23,07,03,19,13,08,01,,2.07,1.13,1.73*0C

时间	日期	纬度	经度	速度
19:16:53	2014-4-15	N纬22°27'33.62880"	E经113°2'34.01760"	0.17964km/h

可见卫星数目	卫星号
14	1 3 7 8 9 11 13 16 19 20 23 27 28 30 

定位模式	定位类型	有效卫星	卫星号	精度因子
自动	3D定位	11	1 3 7 8 9 11 13 16 19 23 27 	p=2.07 h=1.13 v=1.73
=================================================================================
$GPRMC,111654.00,A,2227.56047,N,11302.56697,E,0.035,,150414,,,A*7A
$GPGSV,4,1,14,01,33,174,32,03,46,024,31,07,45,326,34,08,16,323,28*7F
$GPGSV,4,2,14,09,08,322,27,11,60,172,28,13,40,239,31,16,23,066,13*7D
$GPGSV,4,3,14,19,63,012,33,20,01,182,,23,26,200,16,27,30,034,27*79
$GPGSV,4,4,14,28,04,288,20,30,19,321,33*79
$GPGSA,A,3,16,27,11,09,23,07,03,19,13,08,01,,2.07,1.13,1.73*0C

时间	日期	纬度	经度	速度
19:16:54	2014-4-15	N纬22°27'33.62820"	E经113°2'34.01820"	0.06482km/h

可见卫星数目	卫星号
14	1 3 7 8 9 11 13 16 19 20 23 27 28 30 

定位模式	定位类型	有效卫星	卫星号	精度因子
自动	3D定位	11	1 3 7 8 9 11 13 16 19 23 27 	p=2.07 h=1.13 v=1.73
=================================================================================
$GPRMC,111655.00,A,2227.56046,N,11302.56697,E,0.076,,150414,,,A*7D
$GPGSV,4,1,14,01,33,174,32,03,46,024,32,07,45,326,35,08,16,323,28*7D
$GPGSV,4,2,14,09,08,322,27,11,60,172,28,13,40,239,31,16,23,066,12*7C
$GPGSV,4,3,14,19,63,012,34,20,01,182,,23,26,200,18,27,30,034,27*70
$GPGSV,4,4,14,28,04,288,19,30,19,321,33*73
$GPGSA,A,3,16,27,11,09,07,03,19,13,08,01,,,2.07,1.13,1.73*0D

时间	日期	纬度	经度	速度
19:16:55	2014-4-15	N纬22°27'33.62760"	E经113°2'34.01820"	0.14075km/h

可见卫星数目	卫星号
14	1 3 7 8 9 11 13 16 19 20 23 27 28 30 

定位模式	定位类型	有效卫星	卫星号	精度因子
自动	3D定位	10	1 3 7 8 9 11 13 16 19 27 	p=2.07 h=1.13 v=1.73
=================================================================================
$GPRMC,111656.00,A,2227.56044,N,11302.56696,E,0.023,,150414,,,A*7D
$GPGSV,4,1,14,01,33,174,32,03,46,024,32,07,45,326,34,08,16,323,28*7C
$GPGSV,4,2,14,09,08,322,27,11,60,172,29,13,40,239,31,16,23,066,11*7E
$GPGSV,4,3,14,19,63,012,33,20,01,182,,23,26,200,16,27,30,034,27*79
$GPGSV,4,4,14,28,04,288,18,30,19,321,34*75
$GPGSA,A,3,16,27,11,09,23,07,03,19,13,08,01,,1.94,1.07,1.62*00

时间	日期	纬度	经度	速度
19:16:56	2014-4-15	N纬22°27'33.62640"	E经113°2'34.01760"	0.04260km/h

可见卫星数目	卫星号
14	1 3 7 8 9 11 13 16 19 20 23 27 28 30 

定位模式	定位类型	有效卫星	卫星号	精度因子
自动	3D定位	11	1 3 7 8 9 11 13 16 19 23 27 	p=1.94 h=1.07 v=1.62
=================================================================================
$GPRMC,111657.00,A,2227.56044,N,11302.56698,E,0.032,,150414,,,A*72
$GPGSV,4,1,14,01,33,174,33,03,46,024,32,07,45,326,34,08,16,323,28*7D
$GPGSV,4,2,14,09,08,322,28,11,60,172,28,13,40,239,32,16,23,066,09*7A
$GPGSV,4,3,14,19,63,012,33,20,01,182,,23,26,200,17,27,30,034,27*78
$GPGSV,4,4,14,28,04,288,17,30,19,321,33*7D
$GPGSA,A,3,27,11,09,23,07,03,19,13,08,01,,,1.94,1.07,1.62*07

时间	日期	纬度	经度	速度
19:16:57	2014-4-15	N纬22°27'33.62640"	E经113°2'34.01880"	0.05926km/h

可见卫星数目	卫星号
14	1 3 7 8 9 11 13 16 19 20 23 27 28 30 

定位模式	定位类型	有效卫星	卫星号	精度因子
自动	3D定位	10	1 3 7 8 9 11 13 19 23 27 	p=1.94 h=1.07 v=1.62
=================================================================================
$GPRMC,111658.00,A,2227.56045,N,11302.56697,E,0.090,,150414,,,A*7B
$GPGSV,4,1,14,01,33,174,34,03,46,024,31,07,45,326,35,08,16,323,28*78
$GPGSV,4,2,14,09,08,322,28,11,60,172,28,13,40,239,31,16,23,066,08*78
$GPGSV,4,3,14,19,63,012,33,20,01,182,,23,26,200,20,27,30,034,27*7C
$GPGSV,4,4,14,28,04,288,18,30,19,321,34*75
$GPGSA,A,3,27,11,09,23,07,03,19,13,08,01,,,1.94,1.07,1.62*07

时间	日期	纬度	经度	速度
19:16:58	2014-4-15	N纬22°27'33.62700"	E经113°2'34.01820"	0.16668km/h

可见卫星数目	卫星号
14	1 3 7 8 9 11 13 16 19 20 23 27 28 30 

定位模式	定位类型	有效卫星	卫星号	精度因子
自动	3D定位	10	1 3 7 8 9 11 13 19 23 27 	p=1.94 h=1.07 v=1.62
=================================================================================
$GPRMC,111659.00,A,2227.56046,N,11302.56698,E,0.011,,150414,,,A*7F
$GPGSV,4,1,14,01,33,174,34,03,46,024,31,07,45,326,35,08,16,323,29*79
$GPGSV,4,2,14,09,08,322,28,11,60,172,28,13,40,239,31,16,23,066,08*78
$GPGSV,4,3,14,19,63,012,33,20,01,182,,23,26,200,21,27,30,034,27*7D
$GPGSV,4,4,14,28,04,288,18,30,19,321,34*75
$GPGSA,A,3,27,11,09,23,07,03,19,13,08,01,,,1.94,1.07,1.62*07

时间	日期	纬度	经度	速度
19:16:59	2014-4-15	N纬22°27'33.62760"	E经113°2'34.01880"	0.02037km/h

可见卫星数目	卫星号
14	1 3 7 8 9 11 13 16 19 20 23 27 28 30 

定位模式	定位类型	有效卫星	卫星号	精度因子
自动	3D定位	10	1 3 7 8 9 11 13 19 23 27 	p=1.94 h=1.07 v=1.62
=================================================================================
$GPRMC,111700.00,A,2227.56049,N,11302.56698,E,0.042,,150414,,,A*7B
$GPGSV,4,1,14,01,33,174,34,03,46,024,31,07,45,326,34,08,16,323,28*79
$GPGSV,4,2,14,09,08,322,28,11,60,172,28,13,40,239,31,16,23,066,08*78
$GPGSV,4,3,14,19,63,012,33,20,01,182,,23,26,200,22,27,30,034,27*7E
$GPGSV,4,4,14,28,04,288,19,30,19,321,33*73
$GPGSA,A,3,27,11,09,23,07,03,19,13,08,01,,,1.94,1.07,1.62*07

时间	日期	纬度	经度	速度
19:17:0	2014-4-15	N纬22°27'33.62940"	E经113°2'34.01880"	0.07778km/h

可见卫星数目	卫星号
14	1 3 7 8 9 11 13 16 19 20 23 27 28 30 

定位模式	定位类型	有效卫星	卫星号	精度因子
自动	3D定位	10	1 3 7 8 9 11 13 19 23 27 	p=1.94 h=1.07 v=1.62
=================================================================================
$GPRMC,111701.00,A,2227.56051,N,11302.56700,E,0.061,,150414,,,A*72
$GPGSV,4,1,14,01,33,174,34,03,46,024,31,07,45,326,34,08,16,323,28*79
$GPGSV,4,2,14,09,08,322,28,11,60,172,28,13,40,239,31,16,23,066,08*78
$GPGSV,4,3,14,19,63,012,33,20,01,182,,23,26,200,22,27,30,034,27*7E
$GPGSV,4,4,14,28,04,288,19,30,19,321,34*74
$GPGSA,A,3,27,11,09,23,07,03,19,13,08,01,,,1.94,1.07,1.62*07

时间	日期	纬度	经度	速度
19:17:1	2014-4-15	N纬22°27'33.63060"	E经113°2'34.02000"	0.11297km/h

可见卫星数目	卫星号
14	1 3 7 8 9 11 13 16 19 20 23 27 28 30 

定位模式	定位类型	有效卫星	卫星号	精度因子
自动	3D定位	10	1 3 7 8 9 11 13 19 23 27 	p=1.94 h=1.07 v=1.62
=================================================================================
$GPRMC,111702.00,A,2227.56054,N,11302.56704,E,0.071,,150414,,,A*71
$GPGSV,4,1,14,01,33,174,34,03,46,024,31,07,45,326,34,08,16,323,29*78
$GPGSV,4,2,14,09,08,322,28,11,60,172,28,13,40,239,32,16,23,066,08*7B
$GPGSV,4,3,14,19,63,012,33,20,01,182,,23,26,200,22,27,30,034,27*7E
$GPGSV,4,4,14,28,04,288,19,30,19,321,33*73
$GPGSA,A,3,27,11,09,23,07,03,19,13,08,01,,,1.94,1.07,1.62*07

时间	日期	纬度	经度	速度
19:17:2	2014-4-15	N纬22°27'33.63240"	E经113°2'34.02240"	0.13149km/h

可见卫星数目	卫星号
14	1 3 7 8 9 11 13 16 19 20 23 27 28 30 

定位模式	定位类型	有效卫星	卫星号	精度因子
自动	3D定位	10	1 3 7 8 9 11 13 19 23 27 	p=1.94 h=1.07 v=1.62
=================================================================================
$GPRMC,111703.00,A,2227.56055,N,11302.56703,E,0.007,,150414,,,A*77
$GPGSV,4,1,14,01,33,174,34,03,46,024,31,07,45,326,34,08,16,323,28*79
$GPGSV,4,2,14,09,08,322,28,11,60,172,28,13,40,239,31,16,23,066,08*78
$GPGSV,4,3,14,19,63,012,33,20,01,182,,23,26,200,21,27,30,034,27*7D
$GPGSV,4,4,14,28,04,288,18,30,19,321,33*72
$GPGSA,A,3,27,11,09,23,07,03,19,13,08,01,,,2.07,1.13,1.74*0C

时间	日期	纬度	经度	速度
19:17:3	2014-4-15	N纬22°27'33.63300"	E经113°2'34.02180"	0.01296km/h

可见卫星数目	卫星号
14	1 3 7 8 9 11 13 16 19 20 23 27 28 30 

定位模式	定位类型	有效卫星	卫星号	精度因子
自动	3D定位	10	1 3 7 8 9 11 13 19 23 27 	p=2.07 h=1.13 v=1.74
=================================================================================
$GPRMC,111704.00,A,2227.56055,N,11302.56703,E,0.017,,150414,,,A*71
$GPGSV,4,1,14,01,33,174,34,03,46,024,31,07,45,326,34,08,16,323,28*79
$GPGSV,4,2,14,09,08,322,28,11,60,172,28,13,40,239,31,16,23,066,08*78
$GPGSV,4,3,14,19,63,012,33,20,01,182,,23,26,200,21,27,30,034,27*7D
$GPGSV,4,4,14,28,04,288,18,30,19,321,33*72
$GPGSA,A,3,16,27,11,09,23,07,03,19,13,08,01,,2.07,1.13,1.74*0B

时间	日期	纬度	经度	速度
19:17:4	2014-4-15	N纬22°27'33.63300"	E经113°2'34.02180"	0.03148km/h

可见卫星数目	卫星号
14	1 3 7 8 9 11 13 16 19 20 23 27 28 30 

定位模式	定位类型	有效卫星	卫星号	精度因子
自动	3D定位	11	1 3 7 8 9 11 13 16 19 23 27 	p=2.07 h=1.13 v=1.74
=================================================================================
$GPRMC,111705.00,A,2227.56055,N,11302.56704,E,0.026,,150414,,,A*75
$GPGSV,4,1,14,01,33,174,34,03,46,024,31,07,45,326,34,08,16,323,28*79
$GPGSV,4,2,14,09,08,322,28,11,60,172,28,13,40,239,31,16,23,066,08*78
$GPGSV,4,3,14,19,63,012,33,20,01,182,,23,26,200,22,27,30,034,27*7E
$GPGSV,4,4,14,28,04,288,18,30,19,321,33*72
$GPGSA,A,3,16,27,11,09,07,03,19,13,08,01,,,2.07,1.13,1.74*0A

时间	日期	纬度	经度	速度
19:17:5	2014-4-15	N纬22°27'33.63300"	E经113°2'34.02240"	0.04815km/h

可见卫星数目	卫星号
14	1 3 7 8 9 11 13 16 19 20 23 27 28 30 

定位模式	定位类型	有效卫星	卫星号	精度因子
自动	3D定位	10	1 3 7 8 9 11 13 16 19 27 	p=2.07 h=1.13 v=1.74
=================================================================================
$GPRMC,111706.00,A,2227.56057,N,11302.56704,E,0.060,,150414,,,A*76
$GPGSV,4,1,14,01,33,174,34,03,46,024,31,07,45,326,34,08,16,323,28*79
$GPGSV,4,2,14,09,08,322,28,11,60,172,28,13,40,239,31,16,23,066,08*78
$GPGSV,4,3,14,19,63,012,33,20,01,182,14,23,26,200,23,27,30,034,27*7A
$GPGSV,4,4,14,28,04,288,18,30,19,321,33*72
$GPGSA,A,3,16,27,11,09,23,07,03,19,13,08,01,,1.94,1.07,1.62*00

时间	日期	纬度	经度	速度
19:17:6	2014-4-15	N纬22°27'33.63420"	E经113°2'34.02240"	0.11112km/h

可见卫星数目	卫星号
14	1 3 7 8 9 11 13 16 19 20 23 27 28 30 

定位模式	定位类型	有效卫星	卫星号	精度因子
自动	3D定位	11	1 3 7 8 9 11 13 16 19 23 27 	p=1.94 h=1.07 v=1.62
=================================================================================
$GPRMC,111707.00,A,2227.56059,N,11302.56704,E,0.077,,150414,,,A*7F
$GPGSV,4,1,14,01,33,174,34,03,46,024,31,07,45,326,34,08,16,323,28*79
$GPGSV,4,2,14,09,08,322,28,11,60,172,28,13,40,239,31,16,23,066,08*78
$GPGSV,4,3,14,19,63,012,33,20,01,182,12,23,26,200,23,27,30,034,27*7C
$GPGSV,4,4,14,28,04,288,18,30,19,321,33*72
$GPGSA,A,3,16,27,11,09,23,07,03,19,13,08,01,,1.94,1.07,1.62*00

时间	日期	纬度	经度	速度
19:17:7	2014-4-15	N纬22°27'33.63540"	E经113°2'34.02240"	0.14260km/h

可见卫星数目	卫星号
14	1 3 7 8 9 11 13 16 19 20 23 27 28 30 

定位模式	定位类型	有效卫星	卫星号	精度因子
自动	3D定位	11	1 3 7 8 9 11 13 16 19 23 27 	p=1.94 h=1.07 v=1.62
=================================================================================
$GPRMC,111708.00,A,2227.56059,N,11302.56704,E,0.046,,150414,,,A*72
$GPGSV,4,1,14,01,33,174,34,03,46,024,31,07,45,326,34,08,16,323,28*79
$GPGSV,4,2,14,09,08,322,28,11,60,172,28,13,40,239,31,16,23,066,08*78
$GPGSV,4,3,14,19,63,012,33,20,01,182,12,23,26,200,23,27,30,034,27*7C
$GPGSV,4,4,14,28,04,288,16,30,19,321,33*7C
$GPGSA,A,3,16,27,11,09,23,07,03,19,13,08,01,,1.94,1.07,1.62*00

时间	日期	纬度	经度	速度
19:17:8	2014-4-15	N纬22°27'33.63540"	E经113°2'34.02240"	0.08519km/h

可见卫星数目	卫星号
14	1 3 7 8 9 11 13 16 19 20 23 27 28 30 

定位模式	定位类型	有效卫星	卫星号	精度因子
自动	3D定位	11	1 3 7 8 9 11 13 16 19 23 27 	p=1.94 h=1.07 v=1.62
=================================================================================
$GPRMC,111709.00,A,2227.56059,N,11302.56705,E,0.047,,150414,,,A*73
$GPGSV,4,1,14,01,33,174,34,03,46,024,31,07,45,326,34,08,16,323,28*79
$GPGSV,4,2,14,09,08,322,28,11,60,172,28,13,40,239,31,16,23,066,08*78
$GPGSV,4,3,14,19,63,012,33,20,01,182,12,23,26,200,23,27,30,034,27*7C
$GPGSV,4,4,14,28,04,288,17,30,19,321,33*7D
$GPGSA,A,3,16,27,11,09,23,07,03,19,13,08,01,,1.94,1.07,1.62*00

时间	日期	纬度	经度	速度
19:17:9	2014-4-15	N纬22°27'33.63540"	E经113°2'34.02300"	0.08704km/h

可见卫星数目	卫星号
14	1 3 7 8 9 11 13 16 19 20 23 27 28 30 

定位模式	定位类型	有效卫星	卫星号	精度因子
自动	3D定位	11	1 3 7 8 9 11 13 16 19 23 27 	p=1.94 h=1.07 v=1.62
=================================================================================
$GPRMC,111710.00,A,2227.56059,N,11302.56708,E,0.071,,150414,,,A*73
$GPGSV,4,1,14,01,33,174,34,03,46,024,31,07,45,326,34,08,16,323,28*79
$GPGSV,4,2,14,09,08,322,28,11,60,172,28,13,40,239,31,16,23,066,09*79
$GPGSV,4,3,14,19,63,012,33,20,01,182,,23,26,200,24,27,30,034,27*78
$GPGSV,4,4,14,28,04,288,16,30,19,321,33*7C
$GPGSA,A,3,16,27,11,09,23,07,03,19,13,08,01,,1.94,1.07,1.62*00

时间	日期	纬度	经度	速度
19:17:10	2014-4-15	N纬22°27'33.63540"	E经113°2'34.02480"	0.13149km/h

可见卫星数目	卫星号
14	1 3 7 8 9 11 13 16 19 20 23 27 28 30 

定位模式	定位类型	有效卫星	卫星号	精度因子
自动	3D定位	11	1 3 7 8 9 11 13 16 19 23 27 	p=1.94 h=1.07 v=1.62
=================================================================================
$GPRMC,111711.00,A,2227.56059,N,11302.56711,E,0.021,,150414,,,A*7F
$GPGSV,4,1,14,01,33,174,33,03,46,024,30,07,45,326,34,08,16,323,28*7F
$GPGSV,4,2,14,09,08,322,27,11,60,172,28,13,40,239,31,16,23,066,09*76
$GPGSV,4,3,14,19,63,012,33,20,01,182,,23,26,200,24,27,30,034,27*78
$GPGSV,4,4,14,28,04,288,17,30,19,321,33*7D
$GPGSA,A,3,16,27,11,09,23,07,03,19,13,08,01,,1.94,1.07,1.62*00

时间	日期	纬度	经度	速度
19:17:11	2014-4-15	N纬22°27'33.63540"	E经113°2'34.02660"	0.03889km/h

可见卫星数目	卫星号
14	1 3 7 8 9 11 13 16 19 20 23 27 28 30 

定位模式	定位类型	有效卫星	卫星号	精度因子
自动	3D定位	11	1 3 7 8 9 11 13 16 19 23 27 	p=1.94 h=1.07 v=1.62
=================================================================================
$GPRMC,111712.00,A,2227.56058,N,11302.56710,E,0.012,,150414,,,A*7C
$GPGSV,4,1,14,01,33,174,33,03,46,024,30,07,45,326,34,08,16,323,28*7F
$GPGSV,4,2,14,09,08,322,27,11,60,172,27,13,40,239,30,16,23,066,09*78
$GPGSV,4,3,14,19,63,012,33,20,01,182,,23,26,200,24,27,30,034,27*78
$GPGSV,4,4,14,28,04,288,16,30,19,321,33*7C
$GPGSA,A,3,16,27,11,09,23,07,03,19,13,08,01,,1.94,1.07,1.62*00

时间	日期	纬度	经度	速度
19:17:12	2014-4-15	N纬22°27'33.63480"	E经113°2'34.02600"	0.02222km/h

可见卫星数目	卫星号
14	1 3 7 8 9 11 13 16 19 20 23 27 28 30 

定位模式	定位类型	有效卫星	卫星号	精度因子
自动	3D定位	11	1 3 7 8 9 11 13 16 19 23 27 	p=1.94 h=1.07 v=1.62
=================================================================================
$GPRMC,111713.00,A,2227.56058,N,11302.56708,E,0.048,,150414,,,A*7B
$GPGSV,4,1,14,01,33,174,34,03,46,024,31,07,46,326,34,08,16,323,28*7A
$GPGSV,4,2,14,09,08,322,27,11,60,172,28,13,40,239,30,16,23,066,09*77
$GPGSV,4,3,14,19,63,012,33,20,01,182,,23,26,200,23,27,30,034,27*7F
$GPGSV,4,4,14,28,04,288,17,30,19,321,33*7D
$GPGSA,A,3,16,27,11,09,23,07,03,19,13,08,01,,1.94,1.07,1.62*00

时间	日期	纬度	经度	速度
19:17:13	2014-4-15	N纬22°27'33.63480"	E经113°2'34.02480"	0.08890km/h

可见卫星数目	卫星号
14	1 3 7 8 9 11 13 16 19 20 23 27 28 30 

定位模式	定位类型	有效卫星	卫星号	精度因子
自动	3D定位	11	1 3 7 8 9 11 13 16 19 23 27 	p=1.94 h=1.07 v=1.62
=================================================================================
$GPRMC,111714.00,A,2227.56059,N,11302.56709,E,0.008,,150414,,,A*78
$GPGSV,4,1,14,01,33,174,34,03,46,024,31,07,46,326,34,08,17,323,28*7B
$GPGSV,4,2,14,09,08,322,27,11,60,172,28,13,40,239,30,16,23,066,09*77
$GPGSV,4,3,14,19,63,012,33,20,01,182,,23,26,200,23,27,30,034,27*7F
$GPGSV,4,4,14,28,04,288,16,30,19,321,33*7C
$GPGSA,A,3,16,27,11,09,23,07,03,19,13,08,01,,1.94,1.07,1.62*00

时间	日期	纬度	经度	速度
19:17:14	2014-4-15	N纬22°27'33.63540"	E经113°2'34.02540"	0.01482km/h

可见卫星数目	卫星号
14	1 3 7 8 9 11 13 16 19 20 23 27 28 30 

定位模式	定位类型	有效卫星	卫星号	精度因子
自动	3D定位	11	1 3 7 8 9 11 13 16 19 23 27 	p=1.94 h=1.07 v=1.62
=================================================================================
$GPRMC,111715.00,A,2227.56061,N,11302.56714,E,0.202,,150414,,,A*76
$GPGSV,4,1,14,01,33,174,34,03,46,024,31,07,46,326,34,08,17,323,28*7B
$GPGSV,4,2,14,09,08,322,27,11,60,172,27,13,40,239,30,16,23,066,09*78
$GPGSV,4,3,14,19,63,012,33,20,01,182,,23,26,200,23,27,30,034,27*7F
$GPGSV,4,4,14,28,04,288,16,30,19,321,34*7B
$GPGSA,A,3,16,27,11,09,23,07,03,19,13,08,01,,1.65,0.84,1.42*06

时间	日期	纬度	经度	速度
19:17:15	2014-4-15	N纬22°27'33.63660"	E经113°2'34.02840"	0.37410km/h

可见卫星数目	卫星号
14	1 3 7 8 9 11 13 16 19 20 23 27 28 30 

定位模式	定位类型	有效卫星	卫星号	精度因子
自动	3D定位	11	1 3 7 8 9 11 13 16 19 23 27 	p=1.65 h=0.84 v=1.42
=================================================================================
$GPRMC,111716.00,A,2227.56062,N,11302.56716,E,0.017,,150414,,,A*72
$GPGSV,4,1,14,01,33,174,34,03,46,024,31,07,46,326,34,08,17,323,28*7B
$GPGSV,4,2,14,09,08,322,27,11,60,172,28,13,40,239,30,16,23,066,*7E
$GPGSV,4,3,14,19,63,012,33,20,01,182,,23,26,200,24,27,30,034,27*78
$GPGSV,4,4,14,28,04,288,17,30,19,321,33*7D
$GPGSA,A,3,27,11,09,23,07,03,19,13,08,01,,,1.94,1.07,1.62*07

时间	日期	纬度	经度	速度
19:17:16	2014-4-15	N纬22°27'33.63720"	E经113°2'34.02960"	0.03148km/h

可见卫星数目	卫星号
14	1 3 7 8 9 11 13 16 19 20 23 27 28 30 

定位模式	定位类型	有效卫星	卫星号	精度因子
自动	3D定位	10	1 3 7 8 9 11 13 19 23 27 	p=1.94 h=1.07 v=1.62
=================================================================================
$GPRMC,111717.00,A,2227.56063,N,11302.56716,E,0.031,,150414,,,A*76
$GPGSV,4,1,14,01,33,174,34,03,46,024,31,07,46,326,34,08,17,323,28*7B
$GPGSV,4,2,14,09,08,322,27,11,61,172,27,13,40,239,30,16,23,066,*70
$GPGSV,4,3,14,19,63,012,33,20,01,182,,23,26,200,24,27,30,034,27*78
$GPGSV,4,4,14,28,04,288,17,30,19,321,33*7D
$GPGSA,A,3,27,11,09,23,07,03,19,13,08,01,,,1.94,1.07,1.62*07

时间	日期	纬度	经度	速度
19:17:17	2014-4-15	N纬22°27'33.63780"	E经113°2'34.02960"	0.05741km/h

可见卫星数目	卫星号
14	1 3 7 8 9 11 13 16 19 20 23 27 28 30 

定位模式	定位类型	有效卫星	卫星号	精度因子
自动	3D定位	10	1 3 7 8 9 11 13 19 23 27 	p=1.94 h=1.07 v=1.62
=================================================================================
$GPRMC,111718.00,A,2227.56066,N,11302.56720,E,0.144,,150414,,,A*7A
$GPGSV,4,1,14,01,33,174,34,03,46,024,30,07,46,326,34,08,17,323,27*75
$GPGSV,4,2,14,09,08,322,27,11,61,172,27,13,40,239,30,16,23,066,*70
$GPGSV,4,3,14,19,63,012,33,20,01,182,,23,26,200,25,27,30,034,27*79
$GPGSV,4,4,14,28,04,288,18,30,19,321,33*72
$GPGSA,A,3,27,11,09,23,07,03,19,13,08,01,,,1.94,1.07,1.62*07

时间	日期	纬度	经度	速度
19:17:18	2014-4-15	N纬22°27'33.63960"	E经113°2'34.03200"	0.26669km/h

可见卫星数目	卫星号
14	1 3 7 8 9 11 13 16 19 20 23 27 28 30 

定位模式	定位类型	有效卫星	卫星号	精度因子
自动	3D定位	10	1 3 7 8 9 11 13 19 23 27 	p=1.94 h=1.07 v=1.62
=================================================================================
$GPRMC,111719.00,A,2227.56066,N,11302.56722,E,0.173,,150414,,,A*7D
$GPGSV,4,1,14,01,33,174,34,03,46,024,31,07,46,326,34,08,17,323,27*74
$GPGSV,4,2,14,09,08,322,27,11,61,172,27,13,40,238,29,16,23,066,*79
$GPGSV,4,3,14,19,63,012,33,20,01,182,,23,26,200,25,27,30,034,27*79
$GPGSV,4,4,14,28,04,288,18,30,19,321,33*72
$GPGSA,A,3,27,11,09,23,07,03,19,13,08,01,,,1.94,1.07,1.62*07

时间	日期	纬度	经度	速度
19:17:19	2014-4-15	N纬22°27'33.63960"	E经113°2'34.03320"	0.32040km/h

可见卫星数目	卫星号
14	1 3 7 8 9 11 13 16 19 20 23 27 28 30 

定位模式	定位类型	有效卫星	卫星号	精度因子
自动	3D定位	10	1 3 7 8 9 11 13 19 23 27 	p=1.94 h=1.07 v=1.62
=================================================================================
$GPRMC,111720.00,A,2227.56068,N,11302.56719,E,0.042,,150414,,,A*72
$GPGSV,4,1,14,01,33,174,34,03,46,024,31,07,46,326,34,08,17,323,27*74
$GPGSV,4,2,14,09,08,322,27,11,61,172,27,13,40,238,30,16,23,066,*71
$GPGSV,4,3,14,19,63,012,33,20,01,182,,23,26,200,25,27,30,034,27*79
$GPGSV,4,4,14,28,04,288,18,30,19,321,33*72
$GPGSA,A,3,27,11,09,23,07,03,19,13,08,01,,,1.94,1.07,1.62*07

时间	日期	纬度	经度	速度
19:17:20	2014-4-15	N纬22°27'33.64080"	E经113°2'34.03140"	0.07778km/h

可见卫星数目	卫星号
14	1 3 7 8 9 11 13 16 19 20 23 27 28 30 

定位模式	定位类型	有效卫星	卫星号	精度因子
自动	3D定位	10	1 3 7 8 9 11 13 19 23 27 	p=1.94 h=1.07 v=1.62
=================================================================================
$GPRMC,111721.00,A,2227.56069,N,11302.56716,E,0.043,,150414,,,A*7C
$GPGSV,4,1,14,01,33,174,34,03,46,024,30,07,46,326,34,08,17,323,27*75
$GPGSV,4,2,14,09,08,322,27,11,61,172,27,13,40,238,29,16,23,066,*79
$GPGSV,4,3,14,19,63,012,33,20,01,182,,23,26,200,26,27,30,034,27*7A
$GPGSV,4,4,14,28,04,288,17,30,19,321,33*7D
$GPGSA,A,3,27,11,09,23,07,03,19,13,08,01,,,1.94,1.07,1.62*07

时间	日期	纬度	经度	速度
19:17:21	2014-4-15	N纬22°27'33.64140"	E经113°2'34.02960"	0.07964km/h

可见卫星数目	卫星号
14	1 3 7 8 9 11 13 16 19 20 23 27 28 30 

定位模式	定位类型	有效卫星	卫星号	精度因子
自动	3D定位	10	1 3 7 8 9 11 13 19 23 27 	p=1.94 h=1.07 v=1.62
=================================================================================
$GPRMC,111722.00,A,2227.56068,N,11302.56712,E,0.017,,150414,,,A*7B
$GPGSV,4,1,14,01,33,174,33,03,46,024,31,07,46,326,34,08,17,323,27*73
$GPGSV,4,2,14,09,08,322,27,11,61,172,27,13,40,238,29,16,23,067,*78
$GPGSV,4,3,14,19,63,012,33,20,01,182,,23,26,200,26,27,30,034,27*7A
$GPGSV,4,4,14,28,04,288,17,30,19,321,33*7D
$GPGSA,A,3,27,11,09,23,07,03,19,13,08,01,,,1.94,1.07,1.62*07

时间	日期	纬度	经度	速度
19:17:22	2014-4-15	N纬22°27'33.64080"	E经113°2'34.02720"	0.03148km/h

可见卫星数目	卫星号
14	1 3 7 8 9 11 13 16 19 20 23 27 28 30 

定位模式	定位类型	有效卫星	卫星号	精度因子
自动	3D定位	10	1 3 7 8 9 11 13 19 23 27 	p=1.94 h=1.07 v=1.62
=================================================================================
$GPRMC,111723.00,A,2227.56066,N,11302.56705,E,0.055,,150414,,,A*74
$GPGSV,4,1,14,01,33,174,34,03,46,024,31,07,46,326,34,08,17,323,27*74
$GPGSV,4,2,14,09,08,322,26,11,61,172,27,13,40,238,29,16,23,067,*79
$GPGSV,4,3,14,19,63,012,32,20,01,182,,23,26,200,26,27,30,034,27*7B
$GPGSV,4,4,14,28,04,288,16,30,19,321,32*7D
$GPGSA,A,3,27,11,09,23,07,03,19,13,08,01,,,1.94,1.07,1.62*07

时间	日期	纬度	经度	速度
19:17:23	2014-4-15	N纬22°27'33.63960"	E经113°2'34.02300"	0.10186km/h

可见卫星数目	卫星号
14	1 3 7 8 9 11 13 16 19 20 23 27 28 30 

定位模式	定位类型	有效卫星	卫星号	精度因子
自动	3D定位	10	1 3 7 8 9 11 13 19 23 27 	p=1.94 h=1.07 v=1.62
=================================================================================
$GPRMC,111724.00,A,2227.56066,N,11302.56701,E,0.048,,150414,,,A*7B
$GPGSV,4,1,14,01,33,174,34,03,46,024,31,07,46,326,34,08,17,323,27*74
$GPGSV,4,2,14,09,08,322,26,11,61,172,27,13,40,238,29,16,23,067,*79
$GPGSV,4,3,14,19,63,012,32,20,01,182,,23,26,200,26,27,30,034,27*7B
$GPGSV,4,4,14,28,04,288,16,30,19,321,33*7C
$GPGSA,A,3,27,11,09,23,07,03,19,13,08,01,,,1.94,1.07,1.62*07

时间	日期	纬度	经度	速度
19:17:24	2014-4-15	N纬22°27'33.63960"	E经113°2'34.02060"	0.08890km/h

可见卫星数目	卫星号
14	1 3 7 8 9 11 13 16 19 20 23 27 28 30 

定位模式	定位类型	有效卫星	卫星号	精度因子
自动	3D定位	10	1 3 7 8 9 11 13 19 23 27 	p=1.94 h=1.07 v=1.62
=================================================================================
$GPRMC,111725.00,A,2227.56064,N,11302.56697,E,0.037,,150414,,,A*7E
$GPGSV,4,1,14,01,33,174,34,03,46,024,31,07,46,326,34,08,17,323,27*74
$GPGSV,4,2,14,09,08,322,26,11,61,172,27,13,40,238,29,16,23,067,*79
$GPGSV,4,3,14,19,62,013,32,20,01,182,,23,26,200,26,27,30,034,27*7B
$GPGSV,4,4,14,28,04,288,16,30,19,321,32*7D
$GPGSA,A,3,27,11,09,23,07,03,19,13,08,01,,,1.94,1.07,1.62*07

时间	日期	纬度	经度	速度
19:17:25	2014-4-15	N纬22°27'33.63840"	E经113°2'34.01820"	0.06852km/h

可见卫星数目	卫星号
14	1 3 7 8 9 11 13 16 19 20 23 27 28 30 

定位模式	定位类型	有效卫星	卫星号	精度因子
自动	3D定位	10	1 3 7 8 9 11 13 19 23 27 	p=1.94 h=1.07 v=1.62
=================================================================================
$GPRMC,111726.00,A,2227.56066,N,11302.56701,E,0.522,,150414,,,A*70
$GPGSV,4,1,14,01,33,174,34,03,46,024,30,07,46,326,34,08,17,323,27*75
$GPGSV,4,2,14,09,08,322,26,11,61,172,27,13,40,238,29,16,23,067,*79
$GPGSV,4,3,14,19,62,013,33,20,01,181,,23,26,200,26,27,30,034,26*78
$GPGSV,4,4,14,28,04,288,16,30,19,321,33*7C
$GPGSA,A,3,27,11,09,23,07,03,19,13,08,01,,,1.94,1.07,1.62*07

时间	日期	纬度	经度	速度
19:17:26	2014-4-15	N纬22°27'33.63960"	E经113°2'34.02060"	0.96674km/h

可见卫星数目	卫星号
14	1 3 7 8 9 11 13 16 19 20 23 27 28 30 

定位模式	定位类型	有效卫星	卫星号	精度因子
自动	3D定位	10	1 3 7 8 9 11 13 19 23 27 	p=1.94 h=1.07 v=1.62
=================================================================================
$GPRMC,111727.00,A,2227.56067,N,11302.56697,E,0.020,,150414,,,A*79
$GPGSV,4,1,14,01,33,174,34,03,46,024,31,07,46,326,34,08,17,323,27*74
$GPGSV,4,2,14,09,08,322,26,11,61,172,27,13,40,238,29,16,23,067,*79
$GPGSV,4,3,14,19,62,013,33,20,01,181,,23,26,200,26,27,30,034,27*79
$GPGSV,4,4,14,28,04,288,16,30,19,321,33*7C
$GPGSA,A,3,27,11,09,23,07,03,19,13,08,01,,,1.94,1.07,1.62*07

时间	日期	纬度	经度	速度
19:17:27	2014-4-15	N纬22°27'33.64020"	E经113°2'34.01820"	0.03704km/h

可见卫星数目	卫星号
14	1 3 7 8 9 11 13 16 19 20 23 27 28 30 

定位模式	定位类型	有效卫星	卫星号	精度因子
自动	3D定位	10	1 3 7 8 9 11 13 19 23 27 	p=1.94 h=1.07 v=1.62
=================================================================================
$GPRMC,111728.00,A,2227.56067,N,11302.56692,E,0.036,,150414,,,A*74
$GPGSV,4,1,14,01,33,174,34,03,46,024,31,07,46,326,34,08,17,323,27*74
$GPGSV,4,2,14,09,08,322,27,11,61,172,27,13,40,238,29,16,23,067,*78
$GPGSV,4,3,14,19,62,013,32,20,01,181,,23,26,200,26,27,30,034,26*79
$GPGSV,4,4,14,28,04,288,17,30,19,321,32*7C
$GPGSA,A,3,27,11,09,23,07,03,19,13,08,01,,,1.94,1.07,1.62*07

时间	日期	纬度	经度	速度
19:17:28	2014-4-15	N纬22°27'33.64020"	E经113°2'34.01520"	0.06667km/h

可见卫星数目	卫星号
14	1 3 7 8 9 11 13 16 19 20 23 27 28 30 

定位模式	定位类型	有效卫星	卫星号	精度因子
自动	3D定位	10	1 3 7 8 9 11 13 19 23 27 	p=1.94 h=1.07 v=1.62
=================================================================================
$GPRMC,111729.00,A,2227.56068,N,11302.56689,E,0.009,,150414,,,A*7C
$GPGSV,4,1,14,01,33,174,34,03,46,024,30,07,46,326,34,08,17,323,27*75
$GPGSV,4,2,14,09,08,322,27,11,61,172,27,13,40,238,29,16,23,067,*78
$GPGSV,4,3,14,19,62,013,32,20,01,181,,23,25,200,26,27,30,034,26*7A
$GPGSV,4,4,14,28,04,288,16,30,19,321,32*7D
$GPGSA,A,3,27,11,09,23,07,03,19,13,08,01,,,1.94,1.07,1.62*07

时间	日期	纬度	经度	速度
19:17:29	2014-4-15	N纬22°27'33.64080"	E经113°2'34.01340"	0.01667km/h

可见卫星数目	卫星号
14	1 3 7 8 9 11 13 16 19 20 23 27 28 30 

定位模式	定位类型	有效卫星	卫星号	精度因子
自动	3D定位	10	1 3 7 8 9 11 13 19 23 27 	p=1.94 h=1.07 v=1.62
=================================================================================
$GPRMC,111730.00,A,2227.56067,N,11302.56688,E,0.022,,150414,,,A*73
$GPGSV,4,1,14,01,33,174,34,03,46,024,31,07,46,326,34,08,17,323,27*74
$GPGSV,4,2,14,09,08,322,26,11,61,172,27,13,40,238,29,16,23,067,*79
$GPGSV,4,3,14,19,62,013,33,20,01,181,,23,25,200,26,27,30,034,26*7B
$GPGSV,4,4,14,28,04,288,16,30,19,321,32*7D
$GPGSA,A,3,27,11,09,23,07,03,19,13,08,01,,,1.94,1.07,1.62*07

时间	日期	纬度	经度	速度
19:17:30	2014-4-15	N纬22°27'33.64020"	E经113°2'34.01280"	0.04074km/h

可见卫星数目	卫星号
14	1 3 7 8 9 11 13 16 19 20 23 27 28 30 

定位模式	定位类型	有效卫星	卫星号	精度因子
自动	3D定位	10	1 3 7 8 9 11 13 19 23 27 	p=1.94 h=1.07 v=1.62
=================================================================================
$GPRMC,111731.00,A,2227.56065,N,11302.56682,E,0.045,,150414,,,A*7B
$GPGSV,4,1,14,01,33,174,34,03,46,024,31,07,46,326,34,08,17,323,27*74
$GPGSV,4,2,14,09,08,322,27,11,61,172,27,13,40,238,29,16,23,067,*78
$GPGSV,4,3,14,19,62,013,33,20,01,181,,23,25,200,26,27,30,034,27*7A
$GPGSV,4,4,14,28,04,288,16,30,19,321,32*7D
$GPGSA,A,3,27,11,09,23,07,03,19,13,08,01,,,1.94,1.07,1.62*07

时间	日期	纬度	经度	速度
19:17:31	2014-4-15	N纬22°27'33.63900"	E经113°2'34.00920"	0.08334km/h

可见卫星数目	卫星号
14	1 3 7 8 9 11 13 16 19 20 23 27 28 30 

定位模式	定位类型	有效卫星	卫星号	精度因子
自动	3D定位	10	1 3 7 8 9 11 13 19 23 27 	p=1.94 h=1.07 v=1.62
=================================================================================
$GPRMC,111732.00,A,2227.56064,N,11302.56681,E,0.012,,150414,,,A*78
$GPGSV,4,1,14,01,33,174,34,03,46,024,31,07,46,326,34,08,17,323,27*74
$GPGSV,4,2,14,09,08,322,27,11,61,172,27,13,40,238,29,16,23,067,*78
$GPGSV,4,3,14,19,62,013,33,20,01,181,,23,25,200,26,27,30,034,27*7A
$GPGSV,4,4,14,28,04,288,16,30,19,321,33*7C
$GPGSA,A,3,27,11,09,23,07,03,19,13,08,01,,,1.94,1.07,1.62*07

时间	日期	纬度	经度	速度
19:17:32	2014-4-15	N纬22°27'33.63840"	E经113°2'34.00860"	0.02222km/h

可见卫星数目	卫星号
14	1 3 7 8 9 11 13 16 19 20 23 27 28 30 

定位模式	定位类型	有效卫星	卫星号	精度因子
自动	3D定位	10	1 3 7 8 9 11 13 19 23 27 	p=1.94 h=1.07 v=1.62
=================================================================================
$GPRMC,111733.00,A,2227.56062,N,11302.56679,E,0.032,,150414,,,A*7A
$GPGSV,4,1,14,01,33,174,33,03,46,024,30,07,46,326,34,08,17,323,26*73
$GPGSV,4,2,14,09,08,322,26,11,61,172,27,13,40,238,28,16,23,067,*78
$GPGSV,4,3,14,19,62,013,32,20,01,181,,23,25,200,26,27,30,034,26*7A
$GPGSV,4,4,14,28,04,288,15,30,19,321,32*7E
$GPGSA,A,3,27,11,09,23,07,03,19,13,08,01,,,1.94,1.07,1.62*07

时间	日期	纬度	经度	速度
19:17:33	2014-4-15	N纬22°27'33.63720"	E经113°2'34.00740"	0.05926km/h

可见卫星数目	卫星号
14	1 3 7 8 9 11 13 16 19 20 23 27 28 30 

定位模式	定位类型	有效卫星	卫星号	精度因子
自动	3D定位	10	1 3 7 8 9 11 13 19 23 27 	p=1.94 h=1.07 v=1.62
=================================================================================
$GPRMC,111734.00,A,2227.56061,N,11302.56676,E,0.031,,150414,,,A*72
$GPGSV,4,1,14,01,33,174,33,03,46,024,30,07,46,326,34,08,17,323,26*73
$GPGSV,4,2,14,09,08,322,26,11,61,172,27,13,40,238,28,16,23,067,*78
$GPGSV,4,3,14,19,62,013,32,20,01,181,,23,25,200,25,27,30,034,26*79
$GPGSV,4,4,14,28,05,288,15,30,19,321,32*7F
$GPGSA,A,3,27,11,09,23,07,03,19,13,08,01,,,1.94,1.07,1.62*07

时间	日期	纬度	经度	速度
19:17:34	2014-4-15	N纬22°27'33.63660"	E经113°2'34.00560"	0.05741km/h

可见卫星数目	卫星号
14	1 3 7 8 9 11 13 16 19 20 23 27 28 30 

定位模式	定位类型	有效卫星	卫星号	精度因子
自动	3D定位	10	1 3 7 8 9 11 13 19 23 27 	p=1.94 h=1.07 v=1.62
=================================================================================
$GPRMC,111735.00,A,2227.56059,N,11302.56669,E,0.070,,150414,,,A*73
$GPGSV,4,1,14,01,33,174,34,03,46,024,31,07,46,326,35,08,17,323,26*74
$GPGSV,4,2,14,09,08,322,27,11,61,172,27,13,40,238,29,16,23,067,*78
$GPGSV,4,3,14,19,62,013,33,20,01,181,,23,25,200,26,27,30,034,27*7A
$GPGSV,4,4,14,28,05,288,15,30,19,321,32*7F
$GPGSA,A,3,27,11,09,23,07,03,19,13,08,01,,,1.94,1.07,1.62*07

时间	日期	纬度	经度	速度
19:17:35	2014-4-15	N纬22°27'33.63540"	E经113°2'34.00140"	0.12964km/h

可见卫星数目	卫星号
14	1 3 7 8 9 11 13 16 19 20 23 27 28 30 

定位模式	定位类型	有效卫星	卫星号	精度因子
自动	3D定位	10	1 3 7 8 9 11 13 19 23 27 	p=1.94 h=1.07 v=1.62
=================================================================================
$GPRMC,111736.00,A,2227.56057,N,11302.56664,E,0.033,,150414,,,A*74
$GPGSV,4,1,14,01,33,174,34,03,46,024,31,07,46,326,35,08,17,323,27*75
$GPGSV,4,2,14,09,08,322,27,11,61,172,28,13,40,238,29,16,23,067,*77
$GPGSV,4,3,14,19,62,013,33,20,01,181,15,23,25,200,27,27,30,034,27*7F
$GPGSV,4,4,14,28,05,288,15,30,20,321,33*74
$GPGSA,A,3,27,11,09,23,07,03,19,13,08,01,,,1.94,1.07,1.62*07

时间	日期	纬度	经度	速度
19:17:36	2014-4-15	N纬22°27'33.63420"	E经113°2'33.99840"	0.06112km/h

可见卫星数目	卫星号
14	1 3 7 8 9 11 13 16 19 20 23 27 28 30 

定位模式	定位类型	有效卫星	卫星号	精度因子
自动	3D定位	10	1 3 7 8 9 11 13 19 23 27 	p=1.94 h=1.07 v=1.62
=================================================================================
$GPRMC,111737.00,A,2227.56057,N,11302.56663,E,0.078,,150414,,,A*7D
$GPGSV,4,1,14,01,33,174,34,03,46,024,31,07,46,326,34,08,17,323,26*75
$GPGSV,4,2,14,09,08,322,26,11,61,172,27,13,40,238,29,16,23,067,*79
$GPGSV,4,3,14,19,62,013,33,20,01,181,13,23,25,200,26,27,30,034,26*79
$GPGSV,4,4,14,28,05,288,15,30,20,321,32*75
$GPGSA,A,3,27,11,09,23,07,03,19,13,08,01,,,1.94,1.07,1.62*07

时间	日期	纬度	经度	速度
19:17:37	2014-4-15	N纬22°27'33.63420"	E经113°2'33.99780"	0.14446km/h

可见卫星数目	卫星号
14	1 3 7 8 9 11 13 16 19 20 23 27 28 30 

定位模式	定位类型	有效卫星	卫星号	精度因子
自动	3D定位	10	1 3 7 8 9 11 13 19 23 27 	p=1.94 h=1.07 v=1.62
=================================================================================
$GPRMC,111738.00,A,2227.56056,N,11302.56660,E,0.087,,150414,,,A*70
$GPGSV,4,1,14,01,33,174,34,03,46,024,31,07,46,326,34,08,17,323,26*75
$GPGSV,4,2,14,09,08,322,27,11,61,172,28,13,40,238,28,16,23,067,13*74
$GPGSV,4,3,14,19,62,013,33,20,01,181,10,23,25,200,26,27,30,034,26*7A
$GPGSV,4,4,14,28,05,288,16,30,20,321,32*76
$GPGSA,A,3,16,27,11,09,23,07,03,19,13,08,01,,1.94,1.07,1.62*00

时间	日期	纬度	经度	速度
19:17:38	2014-4-15	N纬22°27'33.63360"	E经113°2'33.99600"	0.16112km/h

可见卫星数目	卫星号
14	1 3 7 8 9 11 13 16 19 20 23 27 28 30 

定位模式	定位类型	有效卫星	卫星号	精度因子
自动	3D定位	11	1 3 7 8 9 11 13 16 19 23 27 	p=1.94 h=1.07 v=1.62
=================================================================================
$GPRMC,111739.00,A,2227.56056,N,11302.56657,E,0.112,,150414,,,A*78
$GPGSV,4,1,14,01,33,174,34,03,46,024,31,07,46,326,35,08,17,323,26*74
$GPGSV,4,2,14,09,08,322,27,11,61,172,28,13,40,238,28,16,23,067,12*75
$GPGSV,4,3,14,19,62,013,33,20,01,181,10,23,25,200,26,27,30,034,27*7B
$GPGSV,4,4,14,28,05,288,,30,20,321,32*71
$GPGSA,A,3,16,27,11,09,23,07,03,19,13,08,01,,1.94,1.07,1.62*00

时间	日期	纬度	经度	速度
19:17:39	2014-4-15	N纬22°27'33.63360"	E经113°2'33.99420"	0.20742km/h

可见卫星数目	卫星号
14	1 3 7 8 9 11 13 16 19 20 23 27 28 30 

定位模式	定位类型	有效卫星	卫星号	精度因子
自动	3D定位	11	1 3 7 8 9 11 13 16 19 23 27 	p=1.94 h=1.07 v=1.62
=================================================================================
$GPRMC,111740.00,A,2227.56056,N,11302.56655,E,0.058,,150414,,,A*7B
$GPGSV,4,1,14,01,33,174,34,03,46,024,31,07,46,326,34,08,17,323,26*75
$GPGSV,4,2,14,09,08,322,27,11,61,172,27,13,40,238,28,16,23,067,11*79
$GPGSV,4,3,14,19,62,013,33,20,01,181,11,23,25,200,27,27,30,034,26*7A
$GPGSV,4,4,14,28,05,288,,30,20,321,32*71
$GPGSA,A,3,16,27,11,09,23,07,03,19,13,08,01,,1.94,1.07,1.62*00

时间	日期	纬度	经度	速度
19:17:40	2014-4-15	N纬22°27'33.63360"	E经113°2'33.99300"	0.10742km/h

可见卫星数目	卫星号
14	1 3 7 8 9 11 13 16 19 20 23 27 28 30 

定位模式	定位类型	有效卫星	卫星号	精度因子
自动	3D定位	11	1 3 7 8 9 11 13 16 19 23 27 	p=1.94 h=1.07 v=1.62
=================================================================================
$GPRMC,111741.00,A,2227.56056,N,11302.56655,E,0.076,,150414,,,A*76
$GPGSV,4,1,14,01,33,174,34,03,46,024,31,07,46,326,34,08,17,323,26*75
$GPGSV,4,2,14,09,08,322,26,11,61,172,27,13,40,238,29,16,23,067,11*79
$GPGSV,4,3,14,19,62,013,33,20,01,181,12,23,25,200,27,27,30,034,27*78
$GPGSV,4,4,14,28,05,288,,30,20,321,32*71
$GPGSA,A,3,16,27,11,09,23,07,03,19,13,08,01,,1.94,1.07,1.62*00

时间	日期	纬度	经度	速度
19:17:41	2014-4-15	N纬22°27'33.63360"	E经113°2'33.99300"	0.14075km/h

可见卫星数目	卫星号
14	1 3 7 8 9 11 13 16 19 20 23 27 28 30 

定位模式	定位类型	有效卫星	卫星号	精度因子
自动	3D定位	11	1 3 7 8 9 11 13 16 19 23 27 	p=1.94 h=1.07 v=1.62
=================================================================================
$GPRMC,111742.00,A,2227.56057,N,11302.56653,E,0.030,,150414,,,A*70
$GPGSV,4,1,14,01,33,174,34,03,46,024,30,07,46,326,35,08,17,323,26*75
$GPGSV,4,2,14,09,08,322,27,11,61,172,27,13,40,238,28,16,23,067,11*79
$GPGSV,4,3,14,19,62,013,33,20,01,181,,23,25,200,27,27,30,034,27*7B
$GPGSV,4,4,14,28,05,288,,30,20,321,32*71
$GPGSA,A,3,16,27,11,09,23,07,03,19,13,08,01,,1.94,1.07,1.63*01

时间	日期	纬度	经度	速度
19:17:42	2014-4-15	N纬22°27'33.63420"	E经113°2'33.99180"	0.05556km/h

可见卫星数目	卫星号
14	1 3 7 8 9 11 13 16 19 20 23 27 28 30 

定位模式	定位类型	有效卫星	卫星号	精度因子
自动	3D定位	11	1 3 7 8 9 11 13 16 19 23 27 	p=1.94 h=1.07 v=1.63
=================================================================================
$GPRMC,111743.00,A,2227.56056,N,11302.56648,E,0.158,,150414,,,A*75
$GPGSV,4,1,14,01,33,174,34,03,46,024,30,07,46,326,35,08,17,323,27*74
$GPGSV,4,2,14,09,08,322,27,11,61,172,28,13,40,238,28,16,23,067,11*76
$GPGSV,4,3,14,19,62,013,33,20,01,181,,23,25,200,27,27,30,034,27*7B
$GPGSV,4,4,14,28,05,288,,30,20,321,32*71
$GPGSA,A,3,16,27,11,09,23,07,03,19,13,08,01,,1.65,0.84,1.42*06

时间	日期	纬度	经度	速度
19:17:43	2014-4-15	N纬22°27'33.63360"	E经113°2'33.98880"	0.29262km/h

可见卫星数目	卫星号
14	1 3 7 8 9 11 13 16 19 20 23 27 28 30 

定位模式	定位类型	有效卫星	卫星号	精度因子
自动	3D定位	11	1 3 7 8 9 11 13 16 19 23 27 	p=1.65 h=0.84 v=1.42
=================================================================================
$GPRMC,111744.00,A,2227.56056,N,11302.56646,E,0.013,,150414,,,A*72
$GPGSV,4,1,14,01,33,174,34,03,46,024,31,07,46,326,35,08,17,323,26*74
$GPGSV,4,2,14,09,08,322,26,11,61,172,28,13,40,238,28,16,23,067,11*77
$GPGSV,4,3,14,19,62,013,33,20,01,181,13,23,25,200,27,27,30,034,27*79
$GPGSV,4,4,14,28,05,288,,30,20,321,32*71
$GPGSA,A,3,16,27,11,09,23,07,03,19,13,08,01,,1.65,0.84,1.42*06

时间	日期	纬度	经度	速度
19:17:44	2014-4-15	N纬22°27'33.63360"	E经113°2'33.98760"	0.02408km/h

可见卫星数目	卫星号
14	1 3 7 8 9 11 13 16 19 20 23 27 28 30 

定位模式	定位类型	有效卫星	卫星号	精度因子
自动	3D定位	11	1 3 7 8 9 11 13 16 19 23 27 	p=1.65 h=0.84 v=1.42
=================================================================================
$GPRMC,111745.00,A,2227.56056,N,11302.56646,E,0.071,,150414,,,A*77
$GPGSV,4,1,14,01,33,174,34,03,46,024,30,07,46,326,35,08,17,323,26*75
$GPGSV,4,2,14,09,08,322,26,11,61,172,28,13,40,238,28,16,23,067,11*77
$GPGSV,4,3,14,19,62,013,33,20,01,181,13,23,25,200,26,27,30,034,27*78
$GPGSV,4,4,14,28,05,288,,30,20,321,32*71
$GPGSA,A,3,16,27,11,09,23,07,03,19,13,08,01,,1.65,0.84,1.43*07

时间	日期	纬度	经度	速度
19:17:45	2014-4-15	N纬22°27'33.63360"	E经113°2'33.98760"	0.13149km/h

可见卫星数目	卫星号
14	1 3 7 8 9 11 13 16 19 20 23 27 28 30 

定位模式	定位类型	有效卫星	卫星号	精度因子
自动	3D定位	11	1 3 7 8 9 11 13 16 19 23 27 	p=1.65 h=0.84 v=1.43
=================================================================================
$GPRMC,111746.00,A,2227.56056,N,11302.56649,E,0.057,,150414,,,A*7F
$GPGSV,4,1,14,01,33,174,34,03,46,024,30,07,46,326,34,08,17,323,26*74
$GPGSV,4,2,14,09,08,322,26,11,61,172,28,13,40,238,28,16,23,067,08*7F
$GPGSV,4,3,14,19,62,013,33,20,01,181,12,23,25,200,26,27,30,034,27*79
$GPGSV,4,4,14,28,05,288,17,30,20,321,32*77
$GPGSA,A,3,16,27,11,09,23,07,03,19,13,08,01,,1.65,0.84,1.43*07

时间	日期	纬度	经度	速度
19:17:46	2014-4-15	N纬22°27'33.63360"	E经113°2'33.98940"	0.10556km/h

可见卫星数目	卫星号
14	1 3 7 8 9 11 13 16 19 20 23 27 28 30 

定位模式	定位类型	有效卫星	卫星号	精度因子
自动	3D定位	11	1 3 7 8 9 11 13 16 19 23 27 	p=1.65 h=0.84 v=1.43
=================================================================================
$GPRMC,111747.00,A,2227.56055,N,11302.56650,E,0.013,,150414,,,A*75
$GPGSV,4,1,14,01,33,174,34,03,46,024,30,07,46,326,34,08,17,323,26*74
$GPGSV,4,2,14,09,08,322,27,11,61,172,28,13,40,238,28,16,23,067,08*7E
$GPGSV,4,3,14,19,62,013,33,20,01,181,,23,25,200,27,27,30,034,26*7A
$GPGSV,4,4,14,28,05,288,17,30,20,321,32*77
$GPGSA,A,3,16,27,11,09,23,07,03,19,13,08,01,,1.65,0.84,1.43*07

时间	日期	纬度	经度	速度
19:17:47	2014-4-15	N纬22°27'33.63300"	E经113°2'33.99000"	0.02408km/h

可见卫星数目	卫星号
14	1 3 7 8 9 11 13 16 19 20 23 27 28 30 

定位模式	定位类型	有效卫星	卫星号	精度因子
自动	3D定位	11	1 3 7 8 9 11 13 16 19 23 27 	p=1.65 h=0.84 v=1.43
=================================================================================
$GPRMC,111748.00,A,2227.56055,N,11302.56655,E,0.099,,150414,,,A*7D
$GPGSV,4,1,14,01,33,174,34,03,46,024,30,07,46,326,35,08,17,323,26*75
$GPGSV,4,2,14,09,08,322,26,11,61,172,28,13,40,238,28,16,23,067,08*7F
$GPGSV,4,3,14,19,62,013,33,20,01,181,,23,25,200,27,27,30,034,26*7A
$GPGSV,4,4,14,28,05,288,18,30,20,321,32*78
$GPGSA,A,3,16,27,11,09,23,07,03,19,13,08,01,,1.65,0.84,1.43*07

时间	日期	纬度	经度	速度
19:17:48	2014-4-15	N纬22°27'33.63300"	E经113°2'33.99300"	0.18335km/h

可见卫星数目	卫星号
14	1 3 7 8 9 11 13 16 19 20 23 27 28 30 

定位模式	定位类型	有效卫星	卫星号	精度因子
自动	3D定位	11	1 3 7 8 9 11 13 16 19 23 27 	p=1.65 h=0.84 v=1.43
=================================================================================
$GPRMC,111749.00,A,2227.56052,N,11302.56657,E,0.075,,150414,,,A*7B
$GPGSV,4,1,14,01,33,174,34,03,46,024,31,07,46,326,34,08,17,323,26*75
$GPGSV,4,2,14,09,08,322,26,11,61,172,28,13,40,238,28,16,23,067,*77
$GPGSV,4,3,14,19,62,013,33,20,01,181,,23,25,200,26,27,30,034,26*7B
$GPGSV,4,4,14,28,05,288,18,30,20,321,32*78
$GPGSA,A,3,27,11,09,23,07,03,19,13,08,01,,,1.94,1.07,1.63*06

时间	日期	纬度	经度	速度
19:17:49	2014-4-15	N纬22°27'33.63120"	E经113°2'33.99420"	0.13890km/h

可见卫星数目	卫星号
14	1 3 7 8 9 11 13 16 19 20 23 27 28 30 

定位模式	定位类型	有效卫星	卫星号	精度因子
自动	3D定位	10	1 3 7 8 9 11 13 19 23 27 	p=1.94 h=1.07 v=1.63
=================================================================================
$GPRMC,111750.00,A,2227.56052,N,11302.56657,E,0.057,,150414,,,A*73
$GPGSV,4,1,14,01,33,174,34,03,46,024,30,07,46,326,35,08,17,323,25*76
$GPGSV,4,2,14,09,08,322,26,11,61,172,28,13,40,238,27,16,23,067,*78
$GPGSV,4,3,14,19,62,013,33,20,01,181,12,23,25,200,26,27,30,034,27*79
$GPGSV,4,4,14,28,05,288,18,30,20,321,32*78
$GPGSA,A,3,27,11,09,23,07,03,19,13,08,01,,,1.94,1.07,1.63*06

时间	日期	纬度	经度	速度
19:17:50	2014-4-15	N纬22°27'33.63120"	E经113°2'33.99420"	0.10556km/h

可见卫星数目	卫星号
14	1 3 7 8 9 11 13 16 19 20 23 27 28 30 

定位模式	定位类型	有效卫星	卫星号	精度因子
自动	3D定位	10	1 3 7 8 9 11 13 19 23 27 	p=1.94 h=1.07 v=1.63
=================================================================================
$GPRMC,111751.00,A,2227.56051,N,11302.56656,E,0.068,,150414,,,A*7C
$GPGSV,4,1,14,01,33,174,34,03,46,024,31,07,46,326,35,08,17,323,25*77
$GPGSV,4,2,14,09,08,322,25,11,61,172,28,13,40,238,28,16,23,067,*74
$GPGSV,4,3,14,19,62,013,33,20,01,181,,23,25,200,27,27,30,034,27*7B
$GPGSV,4,4,14,28,05,288,18,30,20,321,31*7B
$GPGSA,A,3,27,11,09,23,07,03,19,13,08,01,,,1.94,1.07,1.63*06

时间	日期	纬度	经度	速度
19:17:51	2014-4-15	N纬22°27'33.63060"	E经113°2'33.99360"	0.12594km/h

可见卫星数目	卫星号
14	1 3 7 8 9 11 13 16 19 20 23 27 28 30 

定位模式	定位类型	有效卫星	卫星号	精度因子
自动	3D定位	10	1 3 7 8 9 11 13 19 23 27 	p=1.94 h=1.07 v=1.63
=================================================================================
$GPRMC,111752.00,A,2227.56049,N,11302.56651,E,0.098,,150414,,,A*7E
$GPGSV,4,1,14,01,33,174,34,03,46,024,31,07,46,326,34,08,17,323,25*76
$GPGSV,4,2,14,09,08,322,25,11,61,172,28,13,40,238,28,16,23,067,*74
$GPGSV,4,3,14,19,62,013,33,20,01,181,,23,25,200,27,27,30,034,26*7A
$GPGSV,4,4,14,28,05,288,19,30,20,321,32*79
$GPGSA,A,3,27,11,09,23,07,03,19,13,08,01,,,1.94,1.07,1.63*06

时间	日期	纬度	经度	速度
19:17:52	2014-4-15	N纬22°27'33.62940"	E经113°2'33.99060"	0.18150km/h

可见卫星数目	卫星号
14	1 3 7 8 9 11 13 16 19 20 23 27 28 30 

定位模式	定位类型	有效卫星	卫星号	精度因子
自动	3D定位	10	1 3 7 8 9 11 13 19 23 27 	p=1.94 h=1.07 v=1.63
=================================================================================
$GPRMC,111753.00,A,2227.56049,N,11302.56650,E,0.125,,150414,,,A*79
$GPGSV,4,1,14,01,33,174,34,03,46,024,31,07,46,326,34,08,17,323,25*76
$GPGSV,4,2,14,09,08,322,25,11,61,172,28,13,40,238,28,16,23,067,*74
$GPGSV,4,3,14,19,62,013,33,20,01,181,14,23,25,200,27,27,30,034,27*7E
$GPGSV,4,4,14,28,05,288,19,30,20,321,32*79
$GPGSA,A,3,27,11,09,23,07,03,19,13,08,01,,,1.94,1.07,1.63*06

时间	日期	纬度	经度	速度
19:17:53	2014-4-15	N纬22°27'33.62940"	E经113°2'33.99000"	0.23150km/h

可见卫星数目	卫星号
14	1 3 7 8 9 11 13 16 19 20 23 27 28 30 

定位模式	定位类型	有效卫星	卫星号	精度因子
自动	3D定位	10	1 3 7 8 9 11 13 19 23 27 	p=1.94 h=1.07 v=1.63
=================================================================================
$GPRMC,111754.00,A,2227.56049,N,11302.56650,E,0.106,,150414,,,A*7F
$GPGSV,4,1,14,01,33,174,34,03,46,024,31,07,46,326,34,08,17,323,25*76
$GPGSV,4,2,14,09,08,322,25,11,61,172,28,13,40,238,28,16,23,067,*74
$GPGSV,4,3,14,19,62,013,33,20,01,181,12,23,25,200,27,27,30,034,27*78
$GPGSV,4,4,14,28,05,288,19,30,20,321,32*79
$GPGSA,A,3,27,11,09,23,07,03,19,13,08,01,,,1.94,1.07,1.63*06

时间	日期	纬度	经度	速度
19:17:54	2014-4-15	N纬22°27'33.62940"	E经113°2'33.99000"	0.19631km/h

可见卫星数目	卫星号
14	1 3 7 8 9 11 13 16 19 20 23 27 28 30 

定位模式	定位类型	有效卫星	卫星号	精度因子
自动	3D定位	10	1 3 7 8 9 11 13 19 23 27 	p=1.94 h=1.07 v=1.63
=================================================================================
$GPRMC,111755.00,A,2227.56048,N,11302.56650,E,0.036,,150414,,,A*7D
$GPGSV,4,1,14,01,33,174,34,03,46,024,30,07,46,326,34,08,17,323,25*77
$GPGSV,4,2,14,09,08,322,25,11,61,172,28,13,40,238,28,16,23,067,*74
$GPGSV,4,3,14,19,62,013,33,20,01,181,12,23,25,200,27,27,30,034,27*78
$GPGSV,4,4,14,28,05,288,19,30,20,321,32*79
$GPGSA,A,3,27,11,09,23,07,03,19,13,08,01,,,1.94,1.07,1.63*06

时间	日期	纬度	经度	速度
19:17:55	2014-4-15	N纬22°27'33.62880"	E经113°2'33.99000"	0.06667km/h

可见卫星数目	卫星号
14	1 3 7 8 9 11 13 16 19 20 23 27 28 30 

定位模式	定位类型	有效卫星	卫星号	精度因子
自动	3D定位	10	1 3 7 8 9 11 13 19 23 27 	p=1.94 h=1.07 v=1.63
=================================================================================
$GPRMC,111756.00,A,2227.56048,N,11302.56648,E,0.044,,150414,,,A*72
$GPGSV,4,1,14,01,33,174,34,03,46,024,31,07,46,326,34,08,17,323,25*76
$GPGSV,4,2,14,09,08,322,25,11,61,172,28,13,40,238,28,16,23,067,*74
$GPGSV,4,3,14,19,62,013,33,20,01,181,13,23,25,200,27,27,30,034,27*79
$GPGSV,4,4,14,28,05,288,19,30,20,321,31*7A
$GPGSA,A,3,27,11,09,23,07,03,19,13,08,01,,,1.94,1.07,1.63*06

时间	日期	纬度	经度	速度
19:17:56	2014-4-15	N纬22°27'33.62880"	E经113°2'33.98880"	0.08149km/h

可见卫星数目	卫星号
14	1 3 7 8 9 11 13 16 19 20 23 27 28 30 

定位模式	定位类型	有效卫星	卫星号	精度因子
自动	3D定位	10	1 3 7 8 9 11 13 19 23 27 	p=1.94 h=1.07 v=1.63
=================================================================================
$GPRMC,111757.00,A,2227.56048,N,11302.56646,E,0.038,,150414,,,A*76
$GPGSV,4,1,14,01,33,174,34,03,46,024,31,07,46,326,34,08,17,323,24*77
$GPGSV,4,2,14,09,08,322,25,11,61,172,28,13,40,238,28,16,23,067,*74
$GPGSV,4,3,14,19,62,013,33,20,01,181,12,23,25,200,27,27,30,034,27*78
$GPGSV,4,4,14,28,05,288,20,30,20,321,31*70
$GPGSA,A,3,27,11,09,23,07,03,19,13,08,01,,,1.94,1.07,1.63*06

时间	日期	纬度	经度	速度
19:17:57	2014-4-15	N纬22°27'33.62880"	E经113°2'33.98760"	0.07038km/h

可见卫星数目	卫星号
14	1 3 7 8 9 11 13 16 19 20 23 27 28 30 

定位模式	定位类型	有效卫星	卫星号	精度因子
自动	3D定位	10	1 3 7 8 9 11 13 19 23 27 	p=1.94 h=1.07 v=1.63
=================================================================================
$GPRMC,111758.00,A,2227.56039,N,11302.56644,E,0.382,,150414,,,A*7F
$GPGSV,4,1,14,01,33,174,34,03,46,024,31,07,46,326,34,08,17,323,25*76
$GPGSV,4,2,14,09,08,322,25,11,61,172,28,13,40,238,28,16,23,067,*74
$GPGSV,4,3,14,19,62,013,33,20,01,181,11,23,25,200,27,27,30,034,27*7B
$GPGSV,4,4,14,28,05,288,20,30,20,321,31*70
$GPGSA,A,3,27,11,09,23,07,03,19,13,08,01,,,1.94,1.07,1.63*06

时间	日期	纬度	经度	速度
19:17:58	2014-4-15	N纬22°27'33.62340"	E经113°2'33.98640"	0.70746km/h

可见卫星数目	卫星号
14	1 3 7 8 9 11 13 16 19 20 23 27 28 30 

定位模式	定位类型	有效卫星	卫星号	精度因子
自动	3D定位	10	1 3 7 8 9 11 13 19 23 27 	p=1.94 h=1.07 v=1.63
=================================================================================
$GPRMC,111759.00,A,2227.56040,N,11302.56647,E,0.056,,150414,,,A*79
$GPGSV,4,1,14,01,33,174,34,03,46,024,31,07,46,326,34,08,17,323,24*77
$GPGSV,4,2,14,09,08,322,25,11,61,172,29,13,40,238,28,16,23,067,*75
$GPGSV,4,3,14,19,62,013,33,20,01,181,11,23,25,200,27,27,30,034,26*7A
$GPGSV,4,4,14,28,05,288,20,30,20,321,31*70
$GPGSA,A,3,27,11,09,23,07,03,19,13,08,01,,,1.94,1.07,1.63*06

时间	日期	纬度	经度	速度
19:17:59	2014-4-15	N纬22°27'33.62400"	E经113°2'33.98820"	0.10371km/h

可见卫星数目	卫星号
14	1 3 7 8 9 11 13 16 19 20 23 27 28 30 

定位模式	定位类型	有效卫星	卫星号	精度因子
自动	3D定位	10	1 3 7 8 9 11 13 19 23 27 	p=1.94 h=1.07 v=1.63
=================================================================================

$GPGSV,4,1,14,01,33,174,34,03,46,024,31,07,46,326,34,08,17,323,24*77
$GPGSV,4,2,14,09,08,322,25,11,61,172,29,13,40,238,28,16,23,067,*75
$GPGSV,4,3,14,19,62,013,33,20,01,181,13,23,25,200,27,27,30,034,27*79
$GPGSV,4,4,14,28,05,288,21,30,20,321,31*71
$GPGSA,A,3,27,11,09,23,07,03,19,13,08,01,,,1.94,1.07,1.63*06

时间	日期	纬度	经度	速度
0:0:0	200-0-0	 纬 ° ' "	 经 ° ' "	 km/h

可见卫星数目	卫星号
14	1 3 7 8 9 11 13 16 19 20 23 27 28 30 

定位模式	定位类型	有效卫星	卫星号	精度因子
自动	3D定位	10	1 3 7 8 9 11 13 19 23 27 	p=1.94 h=1.07 v=1.63
=================================================================================

$GPGSV,4,1,14,01,33,174,34,03,46,024,31,07,46,326,34,08,17,323,24*77
$GPGSV,4,2,14,09,08,322,25,11,61,172,29,13,40,238,28,16,23,067,*75
$GPGSV,4,3,14,19,62,013,33,20,01,181,13,23,25,200,27,27,30,034,27*79
$GPGSV,4,4,14,28,05,288,21,30,20,321,31*71
$GPGSA,A,3,27,11,09,23,07,03,19,13,08,01,,,1.94,1.07,1.63*06

时间	日期	纬度	经度	速度
0:0:0	200-0-0	 纬 ° ' "	 经 ° ' "	 km/h

可见卫星数目	卫星号
14	1 3 7 8 9 11 13 16 19 20 23 27 28 30 

定位模式	定位类型	有效卫星	卫星号	精度因子
自动	3D定位	10	1 3 7 8 9 11 13 19 23 27 	p=1.94 h=1.07 v=1.63
=================================================================================

$GPGSV,4,1,14,01,33,174,34,03,46,024,31,07,46,326,34,08,17,323,24*77
$GPGSV,4,2,14,09,08,322,26,11,61,172,28,13,40,238,28,16,23,067,*77
$GPGSV,4,3,14,19,62,013,33,20,01,181,12,23,25,200,27,27,30,034,27*78
$GPGSV,4,4,14,28,05,288,20,30,20,321,31*70
$GPGSA,A,3,27,11,09,23,07,03,19,13,08,01,,,1.94,1.06,1.63*07

时间	日期	纬度	经度	速度
0:0:0	200-0-0	 纬 ° ' "	 经 ° ' "	 km/h

可见卫星数目	卫星号
14	1 3 7 8 9 11 13 16 19 20 23 27 28 30 

定位模式	定位类型	有效卫星	卫星号	精度因子
自动	3D定位	10	1 3 7 8 9 11 13 19 23 27 	p=1.94 h=1.06 v=1.63
=================================================================================
$GPRMC,111804.00,A,2227.56034,N,11302.56644,E,0.089,,150414,,,A*7C
$GPGSV,4,1,14,01,33,174,34,03,46,024,31,07,46,326,34,08,17,323,24*77
$GPGSV,4,2,14,09,08,322,25,11,61,172,28,13,40,238,28,16,23,067,*74
$GPGSV,4,3,14,19,62,013,33,20,01,181,12,23,25,200,27,27,30,034,27*78
$GPGSV,4,4,14,28,05,288,20,30,20,321,31*70
$GPGSA,A,3,27,11,09,23,07,03,19,13,08,01,,,2.16,1.09,1.87*0B

时间	日期	纬度	经度	速度
19:18:4	2014-4-15	N纬22°27'33.62040"	E经113°2'33.98640"	0.16483km/h

可见卫星数目	卫星号
14	1 3 7 8 9 11 13 16 19 20 23 27 28 30 

定位模式	定位类型	有效卫星	卫星号	精度因子
自动	3D定位	10	1 3 7 8 9 11 13 19 23 27 	p=2.16 h=1.09 v=1.87
=================================================================================
$GPRMC,111805.00,A,2227.56033,N,11302.56642,E,0.028,,150414,,,A*77
$GPGSV,4,1,14,01,33,174,34,03,46,024,31,07,46,326,34,08,17,323,24*77
$GPGSV,4,2,14,09,08,322,25,11,61,172,29,13,40,238,28,16,23,067,*75
$GPGSV,4,3,14,19,62,013,33,20,01,181,11,23,25,200,28,27,30,034,26*75
$GPGSV,4,4,14,28,05,288,20,30,20,321,31*70


时间	日期	纬度	经度	速度
19:18:5	2014-4-15	N纬22°27'33.61980"	E经113°2'33.98520"	0.05186km/h

可见卫星数目	卫星号
14	1 3 7 8 9 11 13 16 19 20 23 27 28 30 

定位模式	定位类型	有效卫星	卫星号	精度因子
自动	未定位	0		p= h= v=
=================================================================================
$GPRMC,111806.00,A,2227.56034,N,11302.56640,E,0.037,,150414,,,A*7F
$GPGSV,4,1,14,01,33,174,34,03,46,024,31,07,46,326,34,08,17,323,23*70
$GPGSV,4,2,14,09,08,322,25,11,61,172,29,13,40,238,28,16,23,067,*75
$GPGSV,4,3,14,19,62,013,33,20,01,181,09,23,25,200,28,27,30,034,27*7D
$GPGSV,4,4,14,28,05,288,21,30,20,321,31*71


时间	日期	纬度	经度	速度
19:18:6	2014-4-15	N纬22°27'33.62040"	E经113°2'33.98400"	0.06852km/h

可见卫星数目	卫星号
14	1 3 7 8 9 11 13 16 19 20 23 27 28 30 

定位模式	定位类型	有效卫星	卫星号	精度因子
自动	未定位	0		p= h= v=
=================================================================================
$GPRMC,111807.00,A,2227.56032,N,11302.56640,E,0.150,,150414,,,A*78
$GPGSV,4,1,14,01,33,174,34,03,46,024,31,07,46,326,34,08,17,323,23*70
$GPGSV,4,2,14,09,08,322,25,11,61,172,29,13,40,238,28,16,23,067,13*77
$GPGSV,4,3,14,19,62,013,33,20,01,181,09,23,25,200,28,27,30,034,26*7C
$GPGSV,4,4,14,28,05,288,21,30,20,321,31*71
$GPGSA,A,3,27,11,09,23,07,03,19,13,08,01,,,1.94,1.06,1.63*07

时间	日期	纬度	经度	速度
19:18:7	2014-4-15	N纬22°27'33.61920"	E经113°2'33.98400"	0.27780km/h

可见卫星数目	卫星号
14	1 3 7 8 9 11 13 16 19 20 23 27 28 30 

定位模式	定位类型	有效卫星	卫星号	精度因子
自动	3D定位	10	1 3 7 8 9 11 13 19 23 27 	p=1.94 h=1.06 v=1.63
=================================================================================
$GPRMC,111808.00,A,2227.56033,N,11302.56638,E,0.056,,150414,,,A*7E
$GPGSA,A,3,27,11,09,23,07,03,19,13,08,01,,,1.94,1.06,1.63*07

时间	日期	纬度	经度	速度
19:18:8	2014-4-15	N纬22°27'33.61980"	E经113°2'33.98280"	0.10371km/h

可见卫星数目	卫星号
0	

定位模式	定位类型	有效卫星	卫星号	精度因子
自动	3D定位	10	1 3 7 8 9 11 13 19 23 27 	p=1.94 h=1.06 v=1.63
=================================================================================
$GPRMC,111809.00,A,2227.56033,N,11302.56635,E,0.032,,150414,,,A*70
$GPGSA,A,3,27,11,09,23,07,03,19,13,08,01,,,1.94,1.06,1.63*07

时间	日期	纬度	经度	速度
19:18:9	2014-4-15	N纬22°27'33.61980"	E经113°2'33.98100"	0.05926km/h

可见卫星数目	卫星号
0	

定位模式	定位类型	有效卫星	卫星号	精度因子
自动	3D定位	10	1 3 7 8 9 11 13 19 23 27 	p=1.94 h=1.06 v=1.63
=================================================================================
$GPRMC,111810.00,A,2227.56033,N,11302.56630,E,0.028,,150414,,,A*76
$GPGSA,A,3,16,27,11,09,23,07,03,19,13,08,01,,1.94,1.06,1.63*00

时间	日期	纬度	经度	速度
19:18:10	2014-4-15	N纬22°27'33.61980"	E经113°2'33.97800"	0.05186km/h

可见卫星数目	卫星号
0	

定位模式	定位类型	有效卫星	卫星号	精度因子
自动	3D定位	11	1 3 7 8 9 11 13 16 19 23 27 	p=1.94 h=1.06 v=1.63
=================================================================================
$GPRMC,111811.00,A,2227.56029,N,11302.56616,E,0.440,,150414,,,A*72
$GPGSV,4,2,14,09,08,322,24,11,61,172,29,13,40,238,28,16,23,067,10*75
$GPGSV,4,3,14,19,62,013,33,20,01,181,19,23,25,200,28,27,30,034,26*7D
$GPGSV,4,4,14,28,05,288,20,30,20,321,30*71
$GPGSV,4,1,14,01,33,174,34,03,46,024,31,07,46,326,34,08,17,323,22*71
$GPGSA,A,3,16,27,11,09,23,07,03,19,13,08,01,,1.65,0.84,1.43*07

时间	日期	纬度	经度	速度
19:18:11	2014-4-15	N纬22°27'33.61740"	E经113°2'33.96960"	0.81488km/h

可见卫星数目	卫星号
14	9 11 13 16 19 20 23 27 28 30 

定位模式	定位类型	有效卫星	卫星号	精度因子
自动	3D定位	11	1 3 7 8 9 11 13 16 19 23 27 	p=1.65 h=0.84 v=1.43
=================================================================================
$GPRMC,111812.00,A,2227.56028,N,11302.56610,E,0.032,,150414,,,A*77
$GPGSA,A,3,16,27,11,09,23,07,03,19,13,08,01,,1.94,1.06,1.63*00

时间	日期	纬度	经度	速度
19:18:12	2014-4-15	N纬22°27'33.61680"	E经113°2'33.96600"	0.05926km/h

可见卫星数目	卫星号
0	

定位模式	定位类型	有效卫星	卫星号	精度因子
自动	3D定位	11	1 3 7 8 9 11 13 16 19 23 27 	p=1.94 h=1.06 v=1.63
=================================================================================
$GPRMC,111813.00,A,2227.56030,N,11302.56605,E,0.083,,150414,,,A*71
$GPGSA,A,3,27,11,09,23,07,03,19,13,08,01,,,1.94,1.06,1.63*07

时间	日期	纬度	经度	速度
19:18:13	2014-4-15	N纬22°27'33.61800"	E经113°2'33.96300"	0.15372km/h

可见卫星数目	卫星号
0	

定位模式	定位类型	有效卫星	卫星号	精度因子
自动	3D定位	10	1 3 7 8 9 11 13 19 23 27 	p=1.94 h=1.06 v=1.63
=================================================================================
$GPRMC,111814.00,A,2227.56029,N,11302.56600,E,0.038,,150414,,,A*7B
$GPGSV,4,3,14,19,62,013,33,20,01,181,13,23,25,200,27,27,30,034,27*79
$GPGSV,4,4,14,28,05,288,21,30,20,321,30*70
$GPGSV,4,1,14,01,33,174,34,03,46,024,31,07,46,326,34,08,17,323,22*71
$GPGSV,4,2,14,09,08,322,24,11,61,172,29,13,40,238,28,16,23,067,*74
$GPGSA,A,3,27,11,09,23,07,03,19,13,08,01,,,1.94,1.06,1.63*07

时间	日期	纬度	经度	速度
19:18:14	2014-4-15	N纬22°27'33.61740"	E经113°2'33.96000"	0.07038km/h

可见卫星数目	卫星号
14	19 20 23 27 28 30 

定位模式	定位类型	有效卫星	卫星号	精度因子
自动	3D定位	10	1 3 7 8 9 11 13 19 23 27 	p=1.94 h=1.06 v=1.63
=================================================================================
$GPRMC,111815.00,A,2227.56031,N,11302.56598,E,0.069,,150414,,,A*75
$GPGSA,A,3,27,11,09,23,07,03,19,13,08,01,,,1.94,1.06,1.63*07

时间	日期	纬度	经度	速度
19:18:15	2014-4-15	N纬22°27'33.61860"	E经113°2'33.95880"	0.12779km/h

可见卫星数目	卫星号
0	

定位模式	定位类型	有效卫星	卫星号	精度因子
自动	3D定位	10	1 3 7 8 9 11 13 19 23 27 	p=1.94 h=1.06 v=1.63
=================================================================================
$GPRMC,111816.00,A,2227.56026,N,11302.56595,E,0.273,,150414,,,A*74
$GPGSA,A,3,27,11,09,23,07,03,19,13,08,01,,,1.94,1.06,1.63*07

时间	日期	纬度	经度	速度
19:18:16	2014-4-15	N纬22°27'33.61560"	E经113°2'33.95700"	0.50560km/h

可见卫星数目	卫星号
0	

定位模式	定位类型	有效卫星	卫星号	精度因子
自动	3D定位	10	1 3 7 8 9 11 13 19 23 27 	p=1.94 h=1.06 v=1.63
=================================================================================
$GPRMC,111817.00,A,2227.56026,N,11302.56594,E,0.057,,150414,,,A*70
$GPGSA,A,3,27,11,09,23,07,03,19,13,08,01,,,1.94,1.06,1.63*07

时间	日期	纬度	经度	速度
19:18:17	2014-4-15	N纬22°27'33.61560"	E经113°2'33.95640"	0.10556km/h

可见卫星数目	卫星号
0	

定位模式	定位类型	有效卫星	卫星号	精度因子
自动	3D定位	10	1 3 7 8 9 11 13 19 23 27 	p=1.94 h=1.06 v=1.63
=================================================================================
$GPRMC,111818.00,A,2227.56027,N,11302.56592,E,0.076,,150414,,,A*7B
$GPGSV,4,4,14,28,05,288,20,30,20,321,29*79
$GPGSV,4,1,14,01,34,173,34,03,46,024,31,07,46,326,34,08,17,323,20*73
$GPGSV,4,2,14,09,08,322,24,11,61,172,29,13,40,238,29,16,23,067,*75
$GPGSV,4,3,14,19,62,013,34,20,01,181,12,23,25,200,27,27,30,034,26*7E
$GPGSA,A,3,27,11,09,23,07,03,19,13,08,01,,,1.94,1.06,1.63*07

时间	日期	纬度	经度	速度
19:18:18	2014-4-15	N纬22°27'33.61620"	E经113°2'33.95520"	0.14075km/h

可见卫星数目	卫星号
14	28 30 

定位模式	定位类型	有效卫星	卫星号	精度因子
自动	3D定位	10	1 3 7 8 9 11 13 19 23 27 	p=1.94 h=1.06 v=1.63
=================================================================================
$GPRMC,111819.00,A,2227.56026,N,11302.56591,E,0.102,,150414,,,A*7A
$GPGSA,A,3,27,11,09,23,07,03,19,13,08,01,,,1.94,1.06,1.63*07

时间	日期	纬度	经度	速度
19:18:19	2014-4-15	N纬22°27'33.61560"	E经113°2'33.95460"	0.18890km/h
