
09:42:26  $GPRMC,094226.00,A,2227.56236,N,11302.56496,E,0.038,,080414,,,A*71
09:42:26  $GPVTG,,T,,M,0.038,N,0.070,K,A*2F
09:42:26  $GPGGA,094226.00,2227.56236,N,11302.56496,E,1,06,2.17,21.6,M,-5.6,M,,*76
09:42:26  $GPGSA,A,3,16,23,19,13,03,27,,,,,,,4.69,2.17,4.16*04
09:42:26  $GPGSV,3,1,11,03,73,216,39,07,01,309,21,13,32,314,35,16,47,007,32*7D
09:42:26  $GPGSV,3,2,11,19,52,194,40,20,08,226,,21,04,057,,23,59,279,38*7C
09:42:26  $GPGSV,3,3,11,27,81,095,38,31,29,099,,42,50,126,32*4C
09:42:26  $GPGLL,2227.56236,N,11302.56496,E,094226.00,A,A*6A
09:42:27  $GPRMC,094227.00,A,2227.56236,N,11302.56497,E,0.091,,080414,,,A*72
09:42:27  $GPVTG,,T,,M,0.091,N,0.169,K,A*25
09:42:27  $GPGGA,094227.00,2227.56236,N,11302.56497,E,1,06,2.17,21.6,M,-5.6,M,,*76
09:42:27  $GPGSA,A,3,16,23,19,13,03,27,,,,,,,4.69,2.17,4.16*04
09:42:27  $GPGSV,3,1,11,03,73,216,38,07,01,309,21,13,32,314,34,16,47,007,32*7D
09:42:27  $GPGSV,3,2,11,19,52,194,40,20,08,226,,21,04,057,,23,59,279,38*7C
09:42:27  $GPGSV,3,3,11,27,81,095,38,31,29,099,,42,50,126,32*4C
09:42:27  $GPGLL,2227.56236,N,11302.56497,E,094227.00,A,A*6A
09:42:28  $GPRMC,094228.00,A,2227.56236,N,11302.56497,E,0.096,,080414,,,A*7A
09:42:28  $GPVTG,,T,,M,0.096,N,0.177,K,A*2D
09:42:28  $GPGGA,094228.00,2227.56236,N,11302.56497,E,1,06,2.17,21.6,M,-5.6,M,,*79
09:42:28  $GPGSA,A,3,16,23,19,13,03,27,,,,,,,4.69,2.17,4.16*04
09:42:28  $GPGSV,3,1,11,03,73,216,38,07,01,309,21,13,32,314,34,16,47,007,32*7D
09:42:28  $GPGSV,3,2,11,19,52,194,40,20,08,226,,21,04,057,,23,59,279,38*7C
09:42:28  $GPGSV,3,3,11,27,81,095,38,31,29,099,,42,50,126,32*4C
09:42:28  $GPGLL,2227.56236,N,11302.56497,E,094228.00,A,A*65
09:42:29  $GPRMC,094229.00,A,2227.56235,N,11302.56497,E,0.066,,080414,,,A*77
09:42:29  $GPVTG,,T,,M,0.066,N,0.123,K,A*23
09:42:29  $GPGGA,094229.00,2227.56235,N,11302.56497,E,1,06,2.17,21.6,M,-5.6,M,,*7B
09:42:29  $GPGSA,A,3,16,23,19,13,03,27,,,,,,,4.69,2.17,4.16*04
09:42:29  $GPGSV,3,1,11,03,73,216,38,07,01,309,21,13,32,314,34,16,47,007,32*7D
09:42:29  $GPGSV,3,2,11,19,52,194,40,20,08,226,19,21,04,057,,23,59,279,38*74
09:42:29  $GPGSV,3,3,11,27,81,095,38,31,29,099,,42,50,126,32*4C
09:42:29  $GPGLL,2227.56235,N,11302.56497,E,094229.00,A,A*67
09:42:30  $GPRMC,094230.00,A,2227.56234,N,11302.56498,E,0.091,,080414,,,A*79
09:42:30  $GPVTG,,T,,M,0.091,N,0.168,K,A*24
09:42:30  $GPGGA,094230.00,2227.56234,N,11302.56498,E,1,06,2.17,21.5,M,-5.6,M,,*7E
09:42:30  $GPGSA,A,3,16,23,19,13,03,27,,,,,,,4.70,2.17,4.16*0C
09:42:30  $GPGSV,3,1,11,03,73,216,38,07,01,309,20,13,32,314,34,16,47,007,32*7C
09:42:30  $GPGSV,3,2,11,19,52,194,40,20,08,226,17,21,04,057,,23,59,279,39*7B
09:42:30  $GPGSV,3,3,11,27,81,095,38,31,28,100,,42,50,126,32*4C
09:42:30  $GPGLL,2227.56234,N,11302.56498,E,094230.00,A,A*61
09:42:31  $GPRMC,094231.00,A,2227.56235,N,11302.56499,E,0.038,,080414,,,A*7B
09:42:31  $GPVTG,,T,,M,0.038,N,0.070,K,A*2F
09:42:31  $GPGGA,094231.00,2227.56235,N,11302.56499,E,1,06,2.17,21.6,M,-5.6,M,,*7C
09:42:31  $GPGSA,A,3,16,23,19,13,03,27,,,,,,,4.70,2.17,4.16*0C
09:42:31  $GPGSV,3,1,11,03,73,216,39,07,01,309,20,13,32,314,35,16,47,007,32*7C
09:42:31  $GPGSV,3,2,11,19,52,194,40,20,08,226,,21,04,057,19,23,59,279,39*75
09:42:31  $GPGSV,3,3,11,27,81,095,38,31,28,100,,42,50,126,32*4C
09:42:31  $GPGLL,2227.56235,N,11302.56499,E,094231.00,A,A*60
09:42:32  $GPRMC,094232.00,A,2227.56236,N,11302.56500,E,0.012,,080414,,,A*72
09:42:32  $GPVTG,,T,,M,0.012,N,0.022,K,A*20
09:42:32  $GPGGA,094232.00,2227.56236,N,11302.56500,E,1,06,2.17,21.6,M,-5.6,M,,*7D
09:42:32  $GPGSA,A,3,16,23,19,13,03,27,,,,,,,4.70,2.17,4.16*0C
09:42:32  $GPGSV,3,1,11,03,73,216,39,07,01,309,20,13,32,314,34,16,47,007,31*7E
09:42:32  $GPGSV,3,2,11,19,52,194,40,20,08,226,,21,04,057,16,23,59,279,39*7A
09:42:32  $GPGSV,3,3,11,27,81,095,38,31,28,100,,42,50,126,32*4C
09:42:32  $GPGLL,2227.56236,N,11302.56500,E,094232.00,A,A*61
09:42:33  $GPRMC,094233.00,A,2227.56236,N,11302.56501,E,0.031,,080414,,,A*73
09:42:33  $GPVTG,,T,,M,0.031,N,0.057,K,A*23
09:42:33  $GPGGA,094233.00,2227.56236,N,11302.56501,E,1,06,2.17,21.7,M,-5.6,M,,*7C
09:42:33  $GPGSA,A,3,16,23,19,13,03,27,,,,,,,4.70,2.17,4.17*0D
09:42:33  $GPGSV,3,1,11,03,73,216,39,07,01,309,20,13,32,314,34,16,47,007,32*7D
09:42:33  $GPGSV,3,2,11,19,52,194,40,20,08,226,,21,04,057,14,23,59,279,39*78
09:42:33  $GPGSV,3,3,11,27,81,095,38,31,28,100,,42,50,126,32*4C
09:42:33  $GPGLL,2227.56236,N,11302.56501,E,094233.00,A,A*61
09:42:34  $GPRMC,094234.00,A,2227.56237,N,11302.56501,E,0.027,,080414,,,A*72
09:42:34  $GPVTG,,T,,M,0.027,N,0.049,K,A*2B
09:42:34  $GPGGA,094234.00,2227.56237,N,11302.56501,E,1,06,2.17,21.8,M,-5.6,M,,*75
09:42:34  $GPGSA,A,3,16,23,19,13,03,27,,,,,,,4.70,2.17,4.17*0D
09:42:34  $GPGSV,3,1,11,03,73,216,39,07,01,309,19,13,32,314,34,16,47,007,32*77
09:42:34  $GPGSV,3,2,11,19,52,194,40,20,08,226,20,21,04,057,11,23,59,279,39*7F
09:42:34  $GPGSV,3,3,11,27,81,095,38,31,28,100,,42,50,126,32*4C
09:42:34  $GPGLL,2227.56237,N,11302.56501,E,094234.00,A,A*67
09:42:35  $GPRMC,094235.00,A,2227.56237,N,11302.56500,E,0.054,,080414,,,A*76
09:42:35  $GPVTG,,T,,M,0.054,N,0.100,K,A*23
09:42:35  $GPGGA,094235.00,2227.56237,N,11302.56500,E,1,06,2.17,21.8,M,-5.6,M,,*75
09:42:35  $GPGSA,A,3,16,23,19,13,03,27,,,,,,,4.70,2.17,4.17*0D
09:42:35  $GPGSV,3,1,11,03,73,216,39,07,01,309,19,13,32,314,35,16,47,007,33*77
09:42:35  $GPGSV,3,2,11,19,52,194,40,20,08,226,18,21,04,057,,23,59,279,38*75
09:42:35  $GPGSV,3,3,11,27,81,095,37,31,28,100,,42,50,126,32*43
09:42:35  $GPGLL,2227.56237,N,11302.56500,E,094235.00,A,A*67
09:42:36  $GPRMC,094236.00,A,2227.56238,N,11302.56498,E,0.065,,080414,,,A*78
09:42:36  $GPVTG,,T,,M,0.065,N,0.121,K,A*22
09:42:36  $GPGGA,094236.00,2227.56238,N,11302.56498,E,1,06,2.17,21.8,M,-5.6,M,,*79
09:42:36  $GPGSA,A,3,16,23,19,13,03,27,,,,,,,4.70,2.17,4.17*0D
09:42:36  $GPGSV,3,1,11,03,73,216,40,07,01,309,19,13,32,314,35,16,47,007,33*79
09:42:36  $GPGSV,3,2,11,19,52,194,40,20,08,226,,21,04,057,22,23,59,279,39*7D
09:42:36  $GPGSV,3,3,11,27,81,095,38,31,28,100,,42,50,126,33*4D
09:42:36  $GPGLL,2227.56238,N,11302.56498,E,094236.00,A,A*6B
09:42:37  $GPRMC,094237.00,A,2227.56238,N,11302.56496,E,0.051,,080414,,,A*70
09:42:37  $GPVTG,,T,,M,0.051,N,0.094,K,A*2A
09:42:37  $GPGGA,094237.00,2227.56238,N,11302.56496,E,1,06,2.17,21.8,M,-5.6,M,,*76
09:42:37  $GPGSA,A,3,16,23,19,13,03,27,,,,,,,4.70,2.17,4.17*0D
09:42:37  $GPGSV,3,1,11,03,73,216,40,07,01,309,19,13,32,314,35,16,47,007,33*79
09:42:37  $GPGSV,3,2,11,19,52,194,41,20,08,226,18,21,04,057,19,23,59,279,39*7D
09:42:37  $GPGSV,3,3,11,27,81,095,38,31,28,100,,42,50,126,33*4D
09:42:37  $GPGLL,2227.56238,N,11302.56496,E,094237.00,A,A*64
09:42:38  $GPRMC,094238.00,A,2227.56238,N,11302.56493,E,0.033,,080414,,,A*7E
09:42:38  $GPVTG,,T,,M,0.033,N,0.061,K,A*24
09:42:38  $GPGGA,094238.00,2227.56238,N,11302.56493,E,1,06,2.17,21.8,M,-5.6,M,,*7C
09:42:38  $GPGSA,A,3,16,23,19,13,03,27,,,,,,,4.70,2.17,4.17*0D
09:42:38  $GPGSV,3,1,11,03,73,216,40,07,01,309,20,13,32,314,35,16,47,007,33*73
09:42:38  $GPGSV,3,2,11,19,52,194,41,20,08,226,18,21,04,057,,23,59,279,39*75
09:42:38  $GPGSV,3,3,11,27,81,095,39,31,28,100,,42,50,126,33*4C
09:42:38  $GPGLL,2227.56238,N,11302.56493,E,094238.00,A,A*6E
09:42:39  $GPRMC,094239.00,A,2227.56238,N,11302.56492,E,0.011,,080414,,,A*7E
09:42:39  $GPVTG,,T,,M,0.011,N,0.020,K,A*21
09:42:39  $GPGGA,094239.00,2227.56238,N,11302.56492,E,1,06,2.17,21.9,M,-5.6,M,,*7D
09:42:39  $GPGSA,A,3,16,23,19,13,03,27,,,,,,,4.70,2.17,4.17*0D
09:42:39  $GPGSV,3,1,11,03,73,216,39,07,01,309,21,13,32,314,35,16,47,007,33*7C
09:42:39  $GPGSV,3,2,11,19,52,194,41,20,08,226,18,21,04,057,,23,59,279,39*75
09:42:39  $GPGSV,3,3,11,27,81,095,39,31,28,100,,42,50,126,33*4C
09:42:39  $GPGLL,2227.56238,N,11302.56492,E,094239.00,A,A*6E
09:42:40  $GPRMC,094240.00,A,2227.56238,N,11302.56493,E,0.022,,080414,,,A*71
09:42:40  $GPVTG,,T,,M,0.022,N,0.040,K,A*27
09:42:40  $GPGGA,094240.00,2227.56238,N,11302.56493,E,1,06,2.17,21.8,M,-5.6,M,,*73
09:42:40  $GPGSA,A,3,16,23,19,13,03,27,,,,,,,4.70,2.17,4.17*0D
09:42:40  $GPGSV,3,1,11,03,73,216,39,07,01,309,22,13,32,314,35,16,47,007,33*7F
09:42:40  $GPGSV,3,2,11,19,52,194,41,20,08,226,19,21,04,057,,23,59,279,39*74
09:42:40  $GPGSV,3,3,11,27,81,095,39,31,28,100,,42,50,126,33*4C
09:42:40  $GPGLL,2227.56238,N,11302.56493,E,094240.00,A,A*61
09:42:41  $GPRMC,094241.00,A,2227.56237,N,11302.56493,E,0.041,,080414,,,A*7A
09:42:41  $GPVTG,,T,,M,0.041,N,0.076,K,A*27
09:42:41  $GPGGA,094241.00,2227.56237,N,11302.56493,E,1,06,2.17,21.8,M,-5.6,M,,*7D
09:42:41  $GPGSA,A,3,16,23,19,13,03,27,,,,,,,4.71,2.17,4.17*0C
09:42:41  $GPGSV,3,1,11,03,73,216,39,07,01,309,23,13,32,314,35,16,47,007,33*7E
09:42:41  $GPGSV,3,2,11,19,52,194,41,20,08,226,20,21,04,057,,23,59,279,39*7E
09:42:41  $GPGSV,3,3,11,27,81,095,39,31,28,100,,42,50,126,33*4C
09:42:41  $GPGLL,2227.56237,N,11302.56493,E,094241.00,A,A*6F
09:42:42  $GPRMC,094242.00,A,2227.56236,N,11302.56493,E,0.033,,080414,,,A*7D
09:42:42  $GPVTG,,T,,M,0.033,N,0.061,K,A*24
09:42:42  $GPGGA,094242.00,2227.56236,N,11302.56493,E,1,06,2.17,21.8,M,-5.6,M,,*7F
09:42:42  $GPGSA,A,3,16,23,19,13,03,27,,,,,,,4.71,2.17,4.17*0C
09:42:42  $GPGSV,3,1,11,03,73,216,39,07,01,309,23,13,32,314,35,16,47,007,33*7E
09:42:42  $GPGSV,3,2,11,19,52,194,41,20,08,226,21,21,04,057,,23,59,279,39*7F
09:42:42  $GPGSV,3,3,11,27,81,095,39,31,28,100,,42,50,126,33*4C
09:42:42  $GPGLL,2227.56236,N,11302.56493,E,094242.00,A,A*6D
09:42:43  $GPRMC,094243.00,A,2227.56235,N,11302.56493,E,0.043,,080414,,,A*78
09:42:43  $GPVTG,,T,,M,0.043,N,0.079,K,A*2A
09:42:43  $GPGGA,094243.00,2227.56235,N,11302.56493,E,1,06,2.17,21.7,M,-5.6,M,,*72
09:42:43  $GPGSA,A,3,16,23,19,13,03,27,,,,,,,4.71,2.17,4.18*03
09:42:43  $GPGSV,3,1,11,03,73,216,39,07,01,309,23,13,32,314,35,16,47,007,33*7E
09:42:43  $GPGSV,3,2,11,19,52,194,41,20,08,226,21,21,04,057,,23,59,279,39*7F
09:42:43  $GPGSV,3,3,11,27,81,095,39,31,28,100,,42,50,126,33*4C
09:42:43  $GPGLL,2227.56235,N,11302.56493,E,094243.00,A,A*6F
09:42:44  $GPRMC,094244.00,A,2227.56233,N,11302.56492,E,0.026,,080414,,,A*7B
09:42:44  $GPVTG,,T,,M,0.026,N,0.049,K,A*2A
09:42:44  $GPGGA,094244.00,2227.56233,N,11302.56492,E,1,06,2.17,21.6,M,-5.6,M,,*73
09:42:44  $GPGSA,A,3,16,23,19,13,03,27,,,,,,,4.71,2.17,4.18*03
09:42:44  $GPGSV,3,1,11,03,73,216,39,07,01,309,23,13,32,314,35,16,47,007,33*7E
09:42:44  $GPGSV,3,2,11,19,52,194,41,20,08,226,20,21,04,057,,23,59,279,39*7E
09:42:44  $GPGSV,3,3,11,27,81,095,39,31,28,100,,42,50,126,33*4C
09:42:44  $GPGLL,2227.56233,N,11302.56492,E,094244.00,A,A*6F
09:42:45  $GPRMC,094245.00,A,2227.56231,N,11302.56493,E,0.012,,080414,,,A*7E
09:42:45  $GPVTG,,T,,M,0.012,N,0.023,K,A*21
09:42:45  $GPGGA,094245.00,2227.56231,N,11302.56493,E,1,06,2.17,21.4,M,-5.6,M,,*73
09:42:45  $GPGSA,A,3,16,23,19,13,03,27,,,,,,,4.71,2.17,4.18*03
09:42:45  $GPGSV,3,1,11,03,73,216,39,07,01,309,23,13,32,314,35,16,47,007,33*7E
09:42:45  $GPGSV,3,2,11,19,52,194,41,20,08,226,20,21,04,057,,23,59,279,39*7E
09:42:45  $GPGSV,3,3,11,27,81,095,39,31,28,100,,42,50,126,33*4C
09:42:45  $GPGLL,2227.56231,N,11302.56493,E,094245.00,A,A*6D
09:42:46  $GPRMC,094246.00,A,2227.56230,N,11302.56494,E,0.034,,080414,,,A*7F
09:42:46  $GPVTG,,T,,M,0.034,N,0.063,K,A*21
09:42:46  $GPGGA,094246.00,2227.56230,N,11302.56494,E,1,06,2.17,21.3,M,-5.6,M,,*71
09:42:46  $GPGSA,A,3,16,23,19,13,03,27,,,,,,,4.71,2.17,4.18*03
09:42:46  $GPGSV,3,1,11,03,73,216,39,07,01,309,22,13,32,314,35,16,47,007,33*7F
09:42:46  $GPGSV,3,2,11,19,52,194,41,20,08,226,20,21,04,057,,23,59,279,39*7E
09:42:46  $GPGSV,3,3,11,27,81,095,39,31,28,100,,42,50,126,33*4C
09:42:46  $GPGLL,2227.56230,N,11302.56494,E,094246.00,A,A*68
09:42:47  $GPRMC,094247.00,A,2227.56229,N,11302.56493,E,0.021,,080414,,,A*75
09:42:47  $GPVTG,,T,,M,0.021,N,0.039,K,A*2A
09:42:47  $GPGGA,094247.00,2227.56229,N,11302.56493,E,1,06,2.17,21.3,M,-5.6,M,,*7F
09:42:47  $GPGSA,A,3,16,23,19,13,03,27,,,,,,,4.71,2.17,4.18*03
09:42:47  $GPGSV,3,1,11,03,73,216,39,07,01,309,22,13,32,314,34,16,47,007,33*7E
09:42:47  $GPGSV,3,2,11,19,52,194,41,20,08,226,20,21,04,057,,23,59,279,39*7E
09:42:47  $GPGSV,3,3,11,27,81,095,39,31,28,100,,42,50,126,33*4C
09:42:47  $GPGLL,2227.56229,N,11302.56493,E,094247.00,A,A*66
09:42:48  $GPRMC,094248.00,A,2227.56227,N,11302.56492,E,0.075,,080414,,,A*74
09:42:48  $GPVTG,,T,,M,0.075,N,0.140,K,A*24
09:42:48  $GPGGA,094248.00,2227.56227,N,11302.56492,E,1,06,2.17,21.1,M,-5.6,M,,*7D
09:42:48  $GPGSA,A,3,16,23,19,13,03,27,,,,,,,4.71,2.17,4.18*03
09:42:48  $GPGSV,3,1,11,03,73,216,39,07,01,309,22,13,32,314,34,16,47,007,33*7E
09:42:48  $GPGSV,3,2,11,19,52,194,41,20,08,226,20,21,04,057,,23,59,279,39*7E
09:42:48  $GPGSV,3,3,11,27,81,095,39,31,28,100,,42,50,126,33*4C
09:42:48  $GPGLL,2227.56227,N,11302.56492,E,094248.00,A,A*66
09:42:49  $GPRMC,094249.00,A,2227.56226,N,11302.56491,E,0.086,,080414,,,A*7B
09:42:49  $GPVTG,,T,,M,0.086,N,0.159,K,A*20
09:42:49  $GPGGA,094249.00,2227.56226,N,11302.56491,E,1,06,2.17,21.0,M,-5.6,M,,*7F
09:42:49  $GPGSA,A,3,16,23,19,13,03,27,,,,,,,4.71,2.17,4.18*03
09:42:49  $GPGSV,3,1,11,03,73,216,39,07,01,309,23,13,32,314,34,16,47,007,33*7F
09:42:49  $GPGSV,3,2,11,19,52,194,41,20,08,226,21,21,04,057,20,23,59,279,39*7D
09:42:49  $GPGSV,3,3,11,27,81,095,39,31,28,100,,42,50,126,33*4C
09:42:49  $GPGLL,2227.56226,N,11302.56491,E,094249.00,A,A*65
09:42:50  $GPRMC,094250.00,A,2227.56225,N,11302.56491,E,0.035,,080414,,,A*78
09:42:50  $GPVTG,,T,,M,0.035,N,0.064,K,A*27
09:42:50  $GPGGA,094250.00,2227.56225,N,11302.56491,E,1,06,2.17,20.9,M,-5.6,M,,*7C
09:42:50  $GPGSA,A,3,16,23,19,13,03,27,,,,,,,4.71,2.17,4.18*03
09:42:50  $GPGSV,3,1,11,03,73,216,39,07,01,309,23,13,32,314,34,16,47,007,33*7F
09:42:50  $GPGSV,3,2,11,19,52,194,41,20,08,226,21,21,04,057,16,23,59,279,39*78
09:42:50  $GPGSV,3,3,11,27,81,095,39,31,28,100,,42,50,126,33*4C
09:42:50  $GPGLL,2227.56225,N,11302.56491,E,094250.00,A,A*6E
09:42:51  $GPRMC,094251.00,A,2227.56225,N,11302.56488,E,0.073,,080414,,,A*73
09:42:51  $GPVTG,,T,,M,0.073,N,0.136,K,A*23
09:42:51  $GPGGA,094251.00,2227.56225,N,11302.56488,E,1,06,2.17,20.9,M,-5.6,M,,*75
09:42:51  $GPGSA,A,3,16,23,19,13,03,27,,,,,,,4.72,2.17,4.18*00
09:42:51  $GPGSV,3,1,11,03,73,216,39,07,01,309,24,13,32,314,34,16,47,007,33*78
09:42:51  $GPGSV,3,2,11,19,52,194,41,20,08,226,21,21,04,057,11,23,59,279,39*7F
09:42:51  $GPGSV,3,3,11,27,81,095,39,31,28,100,,42,50,126,33*4C
09:42:51  $GPGLL,2227.56225,N,11302.56488,E,094251.00,A,A*67
09:42:52  $GPRMC,094252.00,A,2227.56224,N,11302.56484,E,0.041,,080414,,,A*7C
09:42:52  $GPVTG,,T,,M,0.041,N,0.076,K,A*27
09:42:52  $GPGGA,094252.00,2227.56224,N,11302.56484,E,1,06,2.17,20.8,M,-5.6,M,,*7A
09:42:52  $GPGSA,A,3,16,23,19,13,03,27,,,,,,,4.72,2.17,4.19*01
09:42:52  $GPGSV,3,1,11,03,73,216,39,07,01,309,24,13,32,314,35,16,47,007,33*79
09:42:52  $GPGSV,3,2,11,19,52,194,41,20,08,226,20,21,04,057,10,23,59,279,39*7F
09:42:52  $GPGSV,3,3,11,27,81,095,39,31,28,100,,42,50,126,34*4B
09:42:52  $GPGLL,2227.56224,N,11302.56484,E,094252.00,A,A*69
09:42:53  $GPRMC,094253.00,A,2227.56224,N,11302.56480,E,0.068,,080414,,,A*72
09:42:53  $GPVTG,,T,,M,0.068,N,0.126,K,A*28
09:42:53  $GPGGA,094253.00,2227.56224,N,11302.56480,E,1,06,2.17,20.7,M,-5.6,M,,*70
09:42:53  $GPGSA,A,3,16,23,19,13,03,27,,,,,,,4.72,2.17,4.19*01
09:42:53  $GPGSV,3,1,11,03,73,216,39,07,01,309,23,13,32,314,35,16,47,007,33*7E
09:42:53  $GPGSV,3,2,11,19,52,194,41,20,08,226,19,21,04,057,,23,59,279,39*74
09:42:53  $GPGSV,3,3,11,27,81,095,39,31,28,100,,42,50,126,33*4C
09:42:53  $GPGLL,2227.56224,N,11302.56480,E,094253.00,A,A*6C
09:42:54  $GPRMC,094254.00,A,2227.56223,N,11302.56477,E,0.024,,080414,,,A*72
09:42:54  $GPVTG,,T,,M,0.024,N,0.045,K,A*24
09:42:54  $GPGGA,094254.00,2227.56223,N,11302.56477,E,1,06,2.17,20.6,M,-5.6,M,,*79
09:42:54  $GPGSA,A,3,16,23,19,13,03,27,,,,,,,4.72,2.17,4.19*01
09:42:54  $GPGSV,3,1,11,03,73,216,39,07,01,309,22,13,32,314,35,16,47,007,33*7F
09:42:54  $GPGSV,3,2,11,19,52,194,40,20,08,226,18,21,04,057,23,23,59,279,39*75
09:42:54  $GPGSV,3,3,11,27,81,095,38,31,28,100,,42,50,126,32*4C
09:42:54  $GPGLL,2227.56223,N,11302.56477,E,094254.00,A,A*64
09:42:55  $GPRMC,094255.00,A,2227.56222,N,11302.56474,E,0.030,,080414,,,A*74
09:42:55  $GPVTG,,T,,M,0.030,N,0.055,K,A*20
09:42:55  $GPGGA,094255.00,2227.56222,N,11302.56474,E,1,06,2.17,20.5,M,-5.6,M,,*79
09:42:55  $GPGSA,A,3,16,23,19,13,03,27,,,,,,,4.72,2.17,4.19*01
09:42:55  $GPGSV,3,1,11,03,73,216,39,07,01,309,21,13,32,314,34,16,47,007,33*7D
09:42:55  $GPGSV,3,2,11,19,52,194,40,20,08,226,16,21,04,057,,23,59,279,39*7A
09:42:55  $GPGSV,3,3,11,27,81,095,38,31,28,100,,42,50,126,33*4D
09:42:55  $GPGLL,2227.56222,N,11302.56474,E,094255.00,A,A*67
09:42:56  $GPRMC,094256.00,A,2227.56224,N,11302.56472,E,0.043,,080414,,,A*73
09:42:56  $GPVTG,,T,,M,0.043,N,0.080,K,A*2C
09:42:56  $GPGGA,094256.00,2227.56224,N,11302.56472,E,1,06,2.17,20.4,M,-5.6,M,,*7B
09:42:56  $GPGSA,A,3,16,23,19,13,03,27,,,,,,,4.72,2.17,4.19*01
09:42:56  $GPGSV,3,1,11,03,73,216,39,07,01,309,21,13,32,314,35,16,47,007,33*7C
09:42:56  $GPGSV,3,2,11,19,52,194,40,20,08,226,,21,04,057,,23,59,279,39*7D
09:42:56  $GPGSV,3,3,11,27,81,095,38,31,28,100,,42,50,126,32*4C
09:42:56  $GPGLL,2227.56224,N,11302.56472,E,094256.00,A,A*64
09:42:57  $GPRMC,094257.00,A,2227.56225,N,11302.56471,E,0.035,,080414,,,A*71
09:42:57  $GPVTG,,T,,M,0.035,N,0.064,K,A*27
09:42:57  $GPGGA,094257.00,2227.56225,N,11302.56471,E,1,06,2.17,20.4,M,-5.6,M,,*78
09:42:57  $GPGSA,A,3,16,23,19,13,03,27,,,,,,,4.72,2.17,4.19*01
09:42:57  $GPGSV,3,1,11,03,73,216,39,07,01,309,19,13,32,314,34,16,47,007,33*76
09:42:57  $GPGSV,3,2,11,19,52,194,40,20,08,226,,21,04,057,,23,59,279,38*7C
09:42:57  $GPGSV,3,3,11,27,81,095,38,31,28,100,,42,50,126,32*4C
09:42:57  $GPGLL,2227.56225,N,11302.56471,E,094257.00,A,A*67
09:42:58  $GPRMC,094258.00,A,2227.56225,N,11302.56471,E,0.011,,080414,,,A*78
09:42:58  $GPVTG,,T,,M,0.011,N,0.020,K,A*21
09:42:58  $GPGGA,094258.00,2227.56225,N,11302.56471,E,1,06,2.17,20.2,M,-5.6,M,,*71
09:42:58  $GPGSA,A,3,16,23,19,13,03,27,,,,,,,4.72,2.17,4.19*01
09:42:58  $GPGSV,3,1,11,03,73,216,40,07,01,309,19,13,32,314,35,16,47,007,34*7E
09:42:58  $GPGSV,3,2,11,19,52,194,41,20,08,226,14,21,04,057,19,23,59,279,39*71
09:42:58  $GPGSV,3,3,11,27,81,095,39,31,28,100,,42,50,126,33*4C
09:42:58  $GPGLL,2227.56225,N,11302.56471,E,094258.00,A,A*68
09:42:59  $GPRMC,094259.00,A,2227.56224,N,11302.56472,E,0.012,,080414,,,A*78
09:42:59  $GPVTG,,T,,M,0.012,N,0.022,K,A*20
09:42:59  $GPGGA,094259.00,2227.56224,N,11302.56472,E,1,06,2.17,20.0,M,-5.6,M,,*70
09:42:59  $GPGSA,A,3,16,23,19,13,03,27,,,,,,,4.72,2.17,4.19*01
09:42:59  $GPGSV,3,1,11,03,73,216,40,07,01,309,19,13,32,314,35,16,47,007,33*79
09:42:59  $GPGSV,3,2,11,19,52,194,41,20,08,226,14,21,04,057,17,23,59,279,39*7F
09:42:59  $GPGSV,3,3,11,27,81,095,38,31,28,100,,42,50,126,33*4D
09:42:59  $GPGLL,2227.56224,N,11302.56472,E,094259.00,A,A*6B
09:43:00  $GPRMC,094300.00,A,2227.56225,N,11302.56472,E,0.053,,080414,,,A*71
09:43:00  $GPVTG,,T,,M,0.053,N,0.098,K,A*24
09:43:00  $GPGGA,094300.00,2227.56225,N,11302.56472,E,1,06,2.17,19.9,M,-5.6,M,,*7F
09:43:00  $GPGSA,A,3,16,23,19,13,03,27,,,,,,,4.72,2.17,4.19*01
09:43:00  $GPGSV,3,1,11,03,73,216,40,07,01,309,19,13,32,314,35,16,47,007,33*79
09:43:00  $GPGSV,3,2,11,19,52,194,40,20,08,226,13,21,04,057,12,23,59,279,39*7C
09:43:00  $GPGSV,3,3,11,27,81,095,38,31,28,100,,42,50,126,33*4D
09:43:00  $GPGLL,2227.56225,N,11302.56472,E,094300.00,A,A*67
09:43:01  $GPRMC,094301.00,A,2227.56225,N,11302.56470,E,0.046,,080414,,,A*76
09:43:01  $GPVTG,,T,,M,0.046,N,0.085,K,A*2C
09:43:01  $GPGGA,094301.00,2227.56225,N,11302.56470,E,1,06,2.17,19.8,M,-5.6,M,,*7D
09:43:01  $GPGSA,A,3,16,23,19,13,03,27,,,,,,,4.73,2.17,4.19*00
09:43:01  $GPGSV,3,1,11,03,73,216,39,07,01,309,18,13,32,314,35,16,47,007,33*76
09:43:01  $GPGSV,3,2,11,19,52,194,40,20,08,226,,21,04,057,10,23,59,279,39*7C
09:43:01  $GPGSV,3,3,11,27,81,095,38,31,28,100,22,42,50,126,33*4D
09:43:01  $GPGLL,2227.56225,N,11302.56470,E,094301.00,A,A*64
09:43:02  $GPRMC,094302.00,A,2227.56225,N,11302.56470,E,0.019,,080414,,,A*7F
09:43:02  $GPVTG,,T,,M,0.019,N,0.036,K,A*2E
09:43:02  $GPGGA,094302.00,2227.56225,N,11302.56470,E,1,06,2.17,19.6,M,-5.6,M,,*70
09:43:02  $GPGSA,A,3,16,23,19,13,03,27,,,,,,,4.73,2.17,4.20*0A
09:43:02  $GPGSV,3,1,11,03,73,216,39,07,01,309,17,13,32,314,34,16,47,007,32*79
09:43:02  $GPGSV,3,2,11,19,52,194,40,20,08,226,16,21,04,057,08,23,59,279,39*72
09:43:02  $GPGSV,3,3,11,27,81,095,38,31,28,100,19,42,50,126,32*44
09:43:02  $GPGLL,2227.56225,N,11302.56470,E,094302.00,A,A*67
09:43:03  $GPRMC,094303.00,A,2227.56225,N,11302.56471,E,0.033,,080414,,,A*77
09:43:03  $GPVTG,,T,,M,0.033,N,0.061,K,A*24
09:43:03  $GPGGA,094303.00,2227.56225,N,11302.56471,E,1,06,2.17,19.4,M,-5.6,M,,*72
09:43:03  $GPGSA,A,3,16,23,19,13,03,27,,,,,,,4.73,2.17,4.20*0A
09:43:03  $GPGSV,3,1,11,03,73,216,39,07,01,309,16,13,32,314,34,16,47,007,33*79
09:43:03  $GPGSV,3,2,11,19,52,194,40,20,08,226,13,21,04,057,08,23,59,279,39*77
09:43:03  $GPGSV,3,3,11,27,81,095,38,31,28,100,16,42,50,126,32*4B
09:43:03  $GPGLL,2227.56225,N,11302.56471,E,094303.00,A,A*67
09:43:04  $GPRMC,094304.00,A,2227.56227,N,11302.56472,E,0.046,,080414,,,A*73
09:43:04  $GPVTG,,T,,M,0.046,N,0.086,K,A*2F
09:43:04  $GPGGA,094304.00,2227.56227,N,11302.56472,E,1,06,2.17,19.3,M,-5.6,M,,*73
09:43:04  $GPGSA,A,3,16,23,19,13,03,27,,,,,,,4.73,2.17,4.20*0A
09:43:04  $GPGSV,3,1,11,03,73,216,39,07,01,309,16,13,32,314,34,16,47,007,33*79
09:43:04  $GPGSV,3,2,11,19,52,194,40,20,08,226,09,21,04,057,10,23,59,279,39*75
09:43:04  $GPGSV,3,3,11,27,81,095,38,31,28,100,12,42,50,126,32*4F
09:43:04  $GPGLL,2227.56227,N,11302.56472,E,094304.00,A,A*61
09:43:05  $GPRMC,094305.00,A,2227.56227,N,11302.56471,E,0.033,,080414,,,A*73
09:43:05  $GPVTG,,T,,M,0.033,N,0.061,K,A*24
09:43:05  $GPGGA,094305.00,2227.56227,N,11302.56471,E,1,06,2.18,19.2,M,-5.6,M,,*7F
09:43:05  $GPGSA,A,3,16,23,19,13,03,27,,,,,,,4.73,2.18,4.20*05
09:43:05  $GPGSV,3,1,11,03,73,216,40,07,01,309,15,13,32,314,34,16,47,007,32*75
09:43:05  $GPGSV,3,2,11,19,52,194,39,20,08,226,08,21,04,057,12,23,59,279,37*76
09:43:05  $GPGSV,3,3,11,27,81,095,38,31,28,100,09,42,50,126,32*45
09:43:05  $GPGLL,2227.56227,N,11302.56471,E,094305.00,A,A*63
09:43:06  $GPRMC,094306.00,A,2227.56230,N,11302.56472,E,0.065,,080414,,,A*76
09:43:06  $GPVTG,,T,,M,0.065,N,0.120,K,A*23
09:43:06  $GPGGA,094306.00,2227.56230,N,11302.56472,E,1,06,2.18,19.0,M,-5.6,M,,*7B
09:43:06  $GPGSA,A,3,16,23,19,13,03,27,,,,,,,4.73,2.18,4.20*05
09:43:06  $GPGSV,3,1,11,03,73,216,38,07,01,309,15,13,32,314,32,16,47,007,25*7A
09:43:06  $GPGSV,3,2,11,19,52,194,40,20,08,226,,21,04,057,10,23,59,279,37*72
09:43:06  $GPGSV,3,3,11,27,81,095,36,31,28,100,09,42,50,126,31*48
09:43:06  $GPGLL,2227.56230,N,11302.56472,E,094306.00,A,A*65
09:43:07  $GPRMC,094307.00,A,2227.56232,N,11302.56469,E,0.041,,080414,,,A*79
09:43:07  $GPVTG,,T,,M,0.041,N,0.077,K,A*26
09:43:07  $GPGGA,094307.00,2227.56232,N,11302.56469,E,1,06,2.18,19.0,M,-5.6,M,,*72
09:43:07  $GPGSA,A,3,16,23,19,13,03,27,,,,,,,4.73,2.18,4.20*05
09:43:07  $GPGSV,3,1,11,03,73,216,38,07,01,309,15,13,32,314,33,16,47,007,26*78
09:43:07  $GPGSV,3,2,11,19,52,194,40,20,08,226,,21,04,057,08,23,59,279,33*7F
09:43:07  $GPGSV,3,3,11,27,81,095,36,31,28,100,08,42,50,126,31*49
09:43:07  $GPGLL,2227.56232,N,11302.56469,E,094307.00,A,A*6C
09:43:08  $GPRMC,094308.00,A,2227.56234,N,11302.56468,E,0.056,,080414,,,A*77
09:43:08  $GPVTG,,T,,M,0.056,N,0.103,K,A*22
09:43:08  $GPGGA,094308.00,2227.56234,N,11302.56468,E,1,06,2.18,18.8,M,-5.6,M,,*73
09:43:08  $GPGSA,A,3,16,23,19,13,03,27,,,,,,,4.73,2.18,4.20*05
09:43:08  $GPGSV,3,1,11,03,73,216,39,07,01,309,18,13,32,314,34,16,47,007,27*72
09:43:08  $GPGSV,3,2,11,19,52,194,40,20,08,226,,21,04,057,09,23,59,279,36*7B
09:43:08  $GPGSV,3,3,11,27,81,095,37,31,28,100,08,42,50,126,32*4B
09:43:08  $GPGLL,2227.56234,N,11302.56468,E,094308.00,A,A*64
09:43:09  $GPRMC,094309.00,A,2227.56236,N,11302.56469,E,0.038,,080414,,,A*7D
09:43:09  $GPVTG,,T,,M,0.038,N,0.070,K,A*2F
09:43:09  $GPGGA,094309.00,2227.56236,N,11302.56469,E,1,06,2.18,18.7,M,-5.6,M,,*7E
09:43:09  $GPGSA,A,3,16,23,19,13,03,27,,,,,,,4.73,2.18,4.20*05
09:43:09  $GPGSV,3,1,11,03,73,216,39,07,01,309,19,13,32,314,33,16,47,007,28*7B
09:43:09  $GPGSV,3,2,11,19,52,194,39,20,08,226,,21,04,057,08,23,59,279,35*77
09:43:09  $GPGSV,3,3,11,27,81,095,36,31,28,100,,42,50,126,33*43
09:43:09  $GPGLL,2227.56236,N,11302.56469,E,094309.00,A,A*66
09:43:10  $GPRMC,094310.00,A,2227.56238,N,11302.56467,E,0.039,,080414,,,A*74
09:43:10  $GPVTG,,T,,M,0.039,N,0.073,K,A*2D
09:43:10  $GPGGA,094310.00,2227.56238,N,11302.56467,E,1,06,2.18,18.7,M,-5.6,M,,*76
09:43:10  $GPGSA,A,3,16,23,19,13,03,27,,,,,,,4.73,2.18,4.20*05
09:43:10  $GPGSV,3,1,11,03,73,216,39,07,01,309,20,13,32,314,34,16,47,007,29*77
09:43:10  $GPGSV,3,2,11,19,52,194,39,20,08,226,21,21,04,057,07,23,59,279,35*7B
09:43:10  $GPGSV,3,3,11,27,81,095,36,31,28,100,,42,50,126,33*43
09:43:10  $GPGLL,2227.56238,N,11302.56467,E,094310.00,A,A*6E
09:43:11  $GPRMC,094311.00,A,2227.56240,N,11302.56466,E,0.026,,080414,,,A*75
09:43:11  $GPVTG,,T,,M,0.026,N,0.048,K,A*2B
09:43:11  $GPGGA,094311.00,2227.56240,N,11302.56466,E,1,06,2.18,18.6,M,-5.6,M,,*78
09:43:11  $GPGSA,A,3,16,23,19,13,03,27,,,,,,,4.73,2.18,4.21*04
09:43:11  $GPGSV,3,1,11,03,73,216,39,07,01,309,20,13,32,314,34,16,47,007,29*77
09:43:11  $GPGSV,3,2,11,19,52,194,40,20,08,226,18,21,04,057,07,23,59,279,35*7F
09:43:11  $GPGSV,3,3,11,27,81,095,36,31,28,100,,42,50,126,33*43
09:43:11  $GPGLL,2227.56240,N,11302.56466,E,094311.00,A,A*61
09:43:12  $GPRMC,094312.00,A,2227.56240,N,11302.56464,E,0.059,,080414,,,A*7C
09:43:12  $GPVTG,,T,,M,0.059,N,0.110,K,A*2F
09:43:12  $GPGGA,094312.00,2227.56240,N,11302.56464,E,1,06,2.18,18.6,M,-5.6,M,,*79
09:43:12  $GPGSA,A,3,16,23,19,13,03,27,,,,,,,4.74,2.18,4.21*03
09:43:12  $GPGSV,3,1,11,03,73,216,39,07,01,309,20,13,32,314,34,16,47,007,30*7F
09:43:12  $GPGSV,3,2,11,19,52,194,39,20,08,226,,21,04,057,,23,59,279,35*7F
09:43:12  $GPGSV,3,3,11,27,81,095,36,31,28,100,,42,50,126,33*43
09:43:12  $GPGLL,2227.56240,N,11302.56464,E,094312.00,A,A*60
09:43:13  $GPRMC,094313.00,A,2227.56241,N,11302.56464,E,0.061,,080414,,,A*77
09:43:13  $GPVTG,,T,,M,0.061,N,0.112,K,A*26
09:43:13  $GPGGA,094313.00,2227.56241,N,11302.56464,E,1,06,2.18,18.4,M,-5.6,M,,*7B
09:43:13  $GPGSA,A,3,16,23,19,13,03,27,,,,,,,4.74,2.18,4.21*03
09:43:13  $GPGSV,3,1,11,03,73,217,39,07,01,309,20,13,32,314,34,16,47,007,30*7E
09:43:13  $GPGSV,3,2,11,19,52,194,40,20,08,226,21,21,04,057,21,23,59,279,35*71
09:43:13  $GPGSV,3,3,11,27,81,095,36,31,28,100,,42,50,126,33*43
09:43:13  $GPGLL,2227.56241,N,11302.56464,E,094313.00,A,A*60
